[{"name": "Shanghai", "country": "China", "latitude": "31.22222", "longitude": "121.45806", "population": 22315474}, {"name": "Beijing", "country": "China", "latitude": "39.9075", "longitude": "116.39723", "population": 18960744}, {"name": "Shenzhen", "country": "China", "latitude": "22.54554", "longitude": "114.0683", "population": 17494398}, {"name": "Guangzhou", "country": "China", "latitude": "23.11667", "longitude": "113.25", "population": 16096724}, {"name": "Lagos", "country": "Nigeria", "latitude": "6.45407", "longitude": "3.39467", "population": 15388000}, {"name": "Istanbul", "country": "Turkey", "latitude": "41.01384", "longitude": "28.94966", "population": 14804116}, {"name": "Chengdu", "country": "China", "latitude": "30.66667", "longitude": "104.06667", "population": 13568357}, {"name": "Mumbai", "country": "India", "latitude": "19.07283", "longitude": "72.88261", "population": 12691836}, {"name": "Sao Paulo", "country": "Brazil", "latitude": "-23.5475", "longitude": "-46.63611", "population": 12400232}, {"name": "Mexico City", "country": "Mexico", "latitude": "19.42847", "longitude": "-99.12766", "population": 12294193}, {"name": "Karachi", "country": "Pakistan", "latitude": "24.8608", "longitude": "67.0104", "population": 11624219}, {"name": "Tianjin", "country": "China", "latitude": "39.14222", "longitude": "117.17667", "population": 11090314}, {"name": "Delhi", "country": "India", "latitude": "28.65195", "longitude": "77.23149", "population": 10927986}, {"name": "Wuhan", "country": "China", "latitude": "30.58333", "longitude": "114.26667", "population": 10392693}, {"name": "Moscow", "country": "Russia", "latitude": "55.75222", "longitude": "37.61556", "population": 10381222}, {"name": "Dhaka", "country": "Bangladesh", "latitude": "23.7104", "longitude": "90.40744", "population": 10356500}, {"name": "Seoul", "country": "South Korea", "latitude": "37.566", "longitude": "126.9784", "population": 10349312}, {"name": "Dongguan", "country": "China", "latitude": "23.01797", "longitude": "113.74866", "population": 9644871}, {"name": "Cairo", "country": "Egypt", "latitude": "30.06263", "longitude": "31.24967", "population": 9606916}, {"name": "Xi'an", "country": "China", "latitude": "34.25833", "longitude": "108.92861", "population": 9600000}, {"name": "Nanjing", "country": "China", "latitude": "32.06167", "longitude": "118.77778", "population": 9314685}, {"name": "Hangzhou", "country": "China", "latitude": "30.29365", "longitude": "120.16142", "population": 9236032}, {"name": "Foshan", "country": "China", "latitude": "23.02677", "longitude": "113.13148", "population": 9042509}, {"name": "Ho Chi Minh City", "country": "Vietnam", "latitude": "10.82302", "longitude": "106.62965", "population": 8993082}, {"name": "London", "country": "United Kingdom", "latitude": "51.50853", "longitude": "-0.12574", "population": 8961989}, {"name": "New York City", "country": "United States", "latitude": "40.71427", "longitude": "-74.00597", "population": 8804190}, {"name": "Jakarta", "country": "Indonesia", "latitude": "-6.21462", "longitude": "106.84513", "population": 8540121}, {"name": "Bengaluru", "country": "India", "latitude": "12.97194", "longitude": "77.59369", "population": 8443675}, {"name": "Tokyo", "country": "Japan", "latitude": "35.6895", "longitude": "139.69171", "population": 8336599}, {"name": "Hanoi", "country": "Vietnam", "latitude": "21.0245", "longitude": "105.84117", "population": 8053663}, {"name": "Taipei", "country": "Taiwan", "latitude": "25.04776", "longitude": "121.53185", "population": 7871900}, {"name": "Kinshasa", "country": "Democratic Republic of the Congo", "latitude": "-4.32758", "longitude": "15.31357", "population": 7785965}, {"name": "Lima", "country": "Peru", "latitude": "-12.04318", "longitude": "-77.02824", "population": 7737002}, {"name": "Bogota", "country": "Colombia", "latitude": "4.60971", "longitude": "-74.08175", "population": 7674366}, {"name": "Hong Kong", "country": "Hong Kong", "latitude": "22.27832", "longitude": "114.17469", "population": 7482500}, {"name": "Chongqing", "country": "China", "latitude": "29.56026", "longitude": "106.55771", "population": 7457599}, {"name": "Baghdad", "country": "Iraq", "latitude": "33.34058", "longitude": "44.40088", "population": 7216000}, {"name": "Qingdao", "country": "China", "latitude": "36.06488", "longitude": "120.38042", "population": 7172451}, {"name": "Tehran", "country": "Iran", "latitude": "35.69439", "longitude": "51.42151", "population": 7153309}, {"name": "Shenyang", "country": "China", "latitude": "41.79222", "longitude": "123.43278", "population": 7050000}, {"name": "Hyderabad", "country": "India", "latitude": "17.38405", "longitude": "78.45636", "population": 6809970}, {"name": "Rio de Janeiro", "country": "Brazil", "latitude": "-22.90642", "longitude": "-43.18223", "population": 6747815}, {"name": "Suzhou", "country": "China", "latitude": "31.30408", "longitude": "120.59538", "population": 6715559}, {"name": "Ahmedabad", "country": "India", "latitude": "23.02579", "longitude": "72.58727", "population": 6357693}, {"name": "Abidjan", "country": "Ivory Coast", "latitude": "5.35444", "longitude": "-4.00167", "population": 6321017}, {"name": "Lahore", "country": "Pakistan", "latitude": "31.558", "longitude": "74.35071", "population": 6310888}, {"name": "Singapore", "country": "Singapore", "latitude": "1.28967", "longitude": "103.85007", "population": 5638700}, {"name": "Johannesburg", "country": "South Africa", "latitude": "-26.20227", "longitude": "28.04363", "population": 5635127}, {"name": "Dar es Salaam", "country": "Tanzania", "latitude": "-6.82349", "longitude": "39.26951", "population": 5383728}, {"name": "Saint Petersburg", "country": "Russia", "latitude": "59.93863", "longitude": "30.31413", "population": 5351935}, {"name": "Alexandria", "country": "Egypt", "latitude": "31.20176", "longitude": "29.91582", "population": 5263542}, {"name": "Harbin", "country": "China", "latitude": "45.75", "longitude": "126.65", "population": 5242897}, {"name": "Sydney", "country": "Australia", "latitude": "-33.86785", "longitude": "151.20732", "population": 5231147}, {"name": "Bangkok", "country": "Thailand", "latitude": "13.75398", "longitude": "100.50144", "population": 5104476}, {"name": "Hefei", "country": "China", "latitude": "31.86389", "longitude": "117.28083", "population": 5050000}, {"name": "Melbourne", "country": "Australia", "latitude": "-37.814", "longitude": "144.96332", "population": 4917750}, {"name": "Dalian", "country": "China", "latitude": "38.91222", "longitude": "121.60222", "population": 4913879}, {"name": "Santiago", "country": "Chile", "latitude": "-33.45694", "longitude": "-70.64827", "population": 4837295}, {"name": "Changchun", "country": "China", "latitude": "43.88", "longitude": "125.32278", "population": 4714996}, {"name": "Cape Town", "country": "South Africa", "latitude": "-33.92584", "longitude": "18.42322", "population": 4710000}, {"name": "Jeddah", "country": "Saudi Arabia", "latitude": "21.49012", "longitude": "39.18624", "population": 4697000}, {"name": "Chennai", "country": "India", "latitude": "13.08784", "longitude": "80.27847", "population": 4681087}, {"name": "Kolkata", "country": "India", "latitude": "22.56263", "longitude": "88.36304", "population": 4631392}, {"name": "Xiamen", "country": "China", "latitude": "24.47979", "longitude": "118.08187", "population": 4617251}, {"name": "Surat", "country": "India", "latitude": "21.19594", "longitude": "72.83023", "population": 4591246}, {"name": "Yangon", "country": "Myanmar", "latitude": "16.80528", "longitude": "96.15611", "population": 4477638}, {"name": "Kabul", "country": "Afghanistan", "latitude": "34.52813", "longitude": "69.17233", "population": 4434550}, {"name": "Wuxi", "country": "China", "latitude": "31.56887", "longitude": "120.28857", "population": 4396835}, {"name": "Giza", "country": "Egypt", "latitude": "30.00944", "longitude": "31.20861", "population": 4367343}, {"name": "Jinan", "country": "China", "latitude": "36.66833", "longitude": "116.99722", "population": 4335989}, {"name": "Taiyuan", "country": "China", "latitude": "37.86944", "longitude": "112.56028", "population": 4303673}, {"name": "Zhengzhou", "country": "China", "latitude": "34.75778", "longitude": "113.64861", "population": 4253913}, {"name": "Riyadh", "country": "Saudi Arabia", "latitude": "24.68773", "longitude": "46.72185", "population": 4205961}, {"name": "Kano", "country": "Nigeria", "latitude": "12.00012", "longitude": "8.51672", "population": 4103000}, {"name": "Shijiazhuang", "country": "China", "latitude": "38.04139", "longitude": "114.47861", "population": 3938513}, {"name": "Chattogram", "country": "Bangladesh", "latitude": "22.3384", "longitude": "91.83168", "population": 3920222}, {"name": "Los Angeles", "country": "United States", "latitude": "34.05223", "longitude": "-118.24368", "population": 3898747}, {"name": "Kunming", "country": "China", "latitude": "25.03889", "longitude": "102.71833", "population": 3855346}, {"name": "Zhongshan", "country": "China", "latitude": "22.52306", "longitude": "113.37912", "population": 3841873}, {"name": "Nanning", "country": "China", "latitude": "22.81667", "longitude": "108.31667", "population": 3839800}, {"name": "Shantou", "country": "China", "latitude": "23.35489", "longitude": "116.67876", "population": 3838900}, {"name": "Yokohama", "country": "Japan", "latitude": "35.43333", "longitude": "139.65", "population": 3761630}, {"name": "Fuzhou", "country": "China", "latitude": "26.06139", "longitude": "119.30611", "population": 3740000}, {"name": "Ningbo", "country": "China", "latitude": "29.87819", "longitude": "121.54945", "population": 3731203}, {"name": "Busan", "country": "South Korea", "latitude": "35.10168", "longitude": "129.03004", "population": 3678555}, {"name": "Ibadan", "country": "Nigeria", "latitude": "7.37756", "longitude": "3.90591", "population": 3649000}, {"name": "Puyang", "country": "China", "latitude": "29.45679", "longitude": "119.88872", "population": 3590000}, {"name": "Ankara", "country": "Turkey", "latitude": "39.91987", "longitude": "32.85427", "population": 3517182}, {"name": "Dubai", "country": "United Arab Emirates", "latitude": "25.07725", "longitude": "55.30927", "population": 3478300}, {"name": "Shiyan", "country": "China", "latitude": "32.6475", "longitude": "110.77806", "population": 3460000}, {"name": "Berlin", "country": "Germany", "latitude": "52.52437", "longitude": "13.41053", "population": 3426354}, {"name": "Tangshan", "country": "China", "latitude": "39.63333", "longitude": "118.18333", "population": 3372102}, {"name": "Changzhou", "country": "China", "latitude": "31.77359", "longitude": "119.95401", "population": 3290918}, {"name": "Madrid", "country": "Spain", "latitude": "40.4165", "longitude": "-3.70256", "population": 3255944}, {"name": "Pyongyang", "country": "North Korea", "latitude": "39.03385", "longitude": "125.75432", "population": 3222000}, {"name": "Casablanca", "country": "Morocco", "latitude": "33.58831", "longitude": "-7.61138", "population": 3144909}, {"name": "Zibo", "country": "China", "latitude": "36.79056", "longitude": "118.06333", "population": 3129228}, {"name": "Pune", "country": "India", "latitude": "18.51957", "longitude": "73.85535", "population": 3124458}, {"name": "Durban", "country": "South Africa", "latitude": "-29.8579", "longitude": "31.0292", "population": 3120282}, {"name": "Bursa", "country": "Turkey", "latitude": "40.19559", "longitude": "29.06013", "population": 3101833}, {"name": "Changsha", "country": "China", "latitude": "28.19874", "longitude": "112.97087", "population": 3093980}, {"name": "Guiyang", "country": "China", "latitude": "26.58333", "longitude": "106.71667", "population": 3037159}, {"name": "UEruemqi", "country": "China", "latitude": "43.80096", "longitude": "87.60046", "population": 3029372}, {"name": "Caracas", "country": "Venezuela", "latitude": "10.48801", "longitude": "-66.87919", "population": 3000000}, {"name": "Lanzhou", "country": "China", "latitude": "36.05701", "longitude": "103.83987", "population": 3000000}, {"name": "Incheon", "country": "South Korea", "latitude": "37.45646", "longitude": "126.70515", "population": 2954955}, {"name": "Huizhou", "country": "China", "latitude": "23.11147", "longitude": "114.41523", "population": 2900113}, {"name": "Buenos Aires", "country": "Argentina", "latitude": "-34.61315", "longitude": "-58.37723", "population": 2891082}, {"name": "Surabaya", "country": "Indonesia", "latitude": "-7.24917", "longitude": "112.75083", "population": 2874314}, {"name": "Haikou", "country": "China", "latitude": "20.03421", "longitude": "110.34651", "population": 2873358}, {"name": "Kanpur", "country": "India", "latitude": "26.46523", "longitude": "80.34975", "population": 2823249}, {"name": "Kyiv", "country": "Ukraine", "latitude": "50.45466", "longitude": "30.5238", "population": 2797553}, {"name": "Quito", "country": "Ecuador", "latitude": "-0.22985", "longitude": "-78.52495", "population": 2781641}, {"name": "Luanda", "country": "Angola", "latitude": "-8.83682", "longitude": "13.23432", "population": 2776168}, {"name": "Quezon City", "country": "Philippines", "latitude": "14.6488", "longitude": "121.0509", "population": 2761720}, {"name": "Addis Ababa", "country": "Ethiopia", "latitude": "9.02497", "longitude": "38.74689", "population": 2757729}, {"name": "Osaka", "country": "Japan", "latitude": "34.69374", "longitude": "135.50218", "population": 2753862}, {"name": "Nairobi", "country": "Kenya", "latitude": "-1.28333", "longitude": "36.81667", "population": 2750547}, {"name": "Linyi", "country": "China", "latitude": "35.06306", "longitude": "118.34278", "population": 2743843}, {"name": "Baoding", "country": "China", "latitude": "38.85111", "longitude": "115.49028", "population": 2739887}, {"name": "Brooklyn", "country": "United States", "latitude": "40.6501", "longitude": "-73.94958", "population": 2736074}, {"name": "Guayaquil", "country": "Ecuador", "latitude": "-2.19616", "longitude": "-79.88621", "population": 2723665}, {"name": "Belo Horizonte", "country": "Brazil", "latitude": "-19.92083", "longitude": "-43.93778", "population": 2721564}, {"name": "Salvador", "country": "Brazil", "latitude": "-12.97563", "longitude": "-38.49096", "population": 2711840}, {"name": "Jaipur", "country": "India", "latitude": "26.91962", "longitude": "75.78781", "population": 2711758}, {"name": "Chicago", "country": "United States", "latitude": "41.85003", "longitude": "-87.65005", "population": 2696555}, {"name": "Wenzhou", "country": "China", "latitude": "27.99942", "longitude": "120.66682", "population": 2650000}, {"name": "Yunfu", "country": "China", "latitude": "22.92787", "longitude": "112.03809", "population": 2612800}, {"name": "Navi Mumbai", "country": "India", "latitude": "19.03681", "longitude": "73.01582", "population": 2600000}, {"name": "Toronto", "country": "Canada", "latitude": "43.70643", "longitude": "-79.39864", "population": 2600000}, {"name": "Mogadishu", "country": "Somalia", "latitude": "2.03711", "longitude": "45.34375", "population": 2587183}, {"name": "Brisbane", "country": "Australia", "latitude": "-27.46794", "longitude": "153.02809", "population": 2582007}, {"name": "Daegu", "country": "South Korea", "latitude": "35.87028", "longitude": "128.59111", "population": 2566540}, {"name": "Bekasi", "country": "Indonesia", "latitude": "-6.2349", "longitude": "106.9896", "population": 2564940}, {"name": "Faisalabad", "country": "Pakistan", "latitude": "31.41554", "longitude": "73.08969", "population": 2506595}, {"name": "Izmir", "country": "Turkey", "latitude": "38.41273", "longitude": "27.13838", "population": 2500603}, {"name": "Huai'an", "country": "China", "latitude": "33.58861", "longitude": "119.01917", "population": 2494013}, {"name": "Dakar", "country": "Senegal", "latitude": "14.6937", "longitude": "-17.44406", "population": 2476400}, {"name": "Lucknow", "country": "India", "latitude": "26.83928", "longitude": "80.92313", "population": 2472011}, {"name": "Bandung", "country": "Indonesia", "latitude": "-6.92222", "longitude": "107.60694", "population": 2444160}, {"name": "Medan", "country": "Indonesia", "latitude": "3.58333", "longitude": "98.66667", "population": 2435252}, {"name": "Fortaleza", "country": "Brazil", "latitude": "-3.71722", "longitude": "-38.54306", "population": 2400000}, {"name": "Cali", "country": "Colombia", "latitude": "3.43722", "longitude": "-76.5225", "population": 2392877}, {"name": "Nanchang", "country": "China", "latitude": "28.68396", "longitude": "115.85306", "population": 2357839}, {"name": "Hohhot", "country": "China", "latitude": "40.81056", "longitude": "111.65222", "population": 2350000}, {"name": "Rome", "country": "Italy", "latitude": "41.89193", "longitude": "12.51133", "population": 2318895}, {"name": "Mashhad", "country": "Iran", "latitude": "36.29807", "longitude": "59.60567", "population": 2307177}, {"name": "Houston", "country": "United States", "latitude": "29.76328", "longitude": "-95.36327", "population": 2304580}, {"name": "Kowloon", "country": "Hong Kong", "latitude": "22.31667", "longitude": "114.18333", "population": 2303100}, {"name": "Shaoxing", "country": "China", "latitude": "30.00237", "longitude": "120.57864", "population": 2300000}, {"name": "Nantong", "country": "China", "latitude": "32.03028", "longitude": "120.87472", "population": 2273326}, {"name": "Queens", "country": "United States", "latitude": "40.68149", "longitude": "-73.83652", "population": 2272771}, {"name": "Nagpur", "country": "India", "latitude": "21.14631", "longitude": "79.08491", "population": 2228018}, {"name": "Yantai", "country": "China", "latitude": "37.47649", "longitude": "121.44081", "population": 2227733}, {"name": "Maracaibo", "country": "Venezuela", "latitude": "10.66663", "longitude": "-71.61245", "population": 2225000}, {"name": "Manaus", "country": "Brazil", "latitude": "-3.10194", "longitude": "-60.025", "population": 2219580}, {"name": "Brasilia", "country": "Brazil", "latitude": "-15.77972", "longitude": "-47.92972", "population": 2207718}, {"name": "Zhuhai", "country": "China", "latitude": "22.27694", "longitude": "113.56778", "population": 2207090}, {"name": "Santo Domingo", "country": "Dominican Republic", "latitude": "18.47186", "longitude": "-69.89232", "population": 2201941}, {"name": "Perth", "country": "Australia", "latitude": "-31.95224", "longitude": "115.8614", "population": 2192229}, {"name": "Nagoya", "country": "Japan", "latitude": "35.18147", "longitude": "136.90641", "population": 2191279}, {"name": "Havana", "country": "Cuba", "latitude": "23.13302", "longitude": "-82.38304", "population": 2163824}, {"name": "Baotou", "country": "China", "latitude": "40.6516", "longitude": "109.84389", "population": 2150000}, {"name": "Paris", "country": "France", "latitude": "48.85341", "longitude": "2.3488", "population": 2138551}, {"name": "Coimbatore", "country": "India", "latitude": "11.00555", "longitude": "76.96612", "population": 2136916}, {"name": "Aleppo", "country": "Syria", "latitude": "36.20124", "longitude": "37.16117", "population": 2098210}, {"name": "Kunshan", "country": "China", "latitude": "31.37762", "longitude": "120.95431", "population": 2092496}, {"name": "Al Mawsil al Jadidah", "country": "Iraq", "latitude": "36.33271", "longitude": "43.10555", "population": 2065597}, {"name": "Depok", "country": "Indonesia", "latitude": "-6.4", "longitude": "106.81861", "population": 2056400}, {"name": "Weifang", "country": "China", "latitude": "36.71", "longitude": "119.10194", "population": 2044028}, {"name": "Zunyi", "country": "China", "latitude": "27.68667", "longitude": "106.90722", "population": 2037775}, {"name": "Al Basrah al Qadimah", "country": "Iraq", "latitude": "30.50316", "longitude": "47.81507", "population": 2015483}, {"name": "La Paz", "country": "Bolivia", "latitude": "-16.5", "longitude": "-68.15", "population": 2004652}, {"name": "Lianyungang", "country": "China", "latitude": "34.59845", "longitude": "119.21556", "population": 2001009}, {"name": "Medellin", "country": "Colombia", "latitude": "6.25184", "longitude": "-75.56359", "population": 1999979}, {"name": "Tashkent", "country": "Uzbekistan", "latitude": "41.26465", "longitude": "69.21627", "population": 1978028}, {"name": "Algiers", "country": "Algeria", "latitude": "36.73225", "longitude": "3.08746", "population": 1977663}, {"name": "Ganzhou", "country": "China", "latitude": "25.84664", "longitude": "114.9326", "population": 1977253}, {"name": "Almaty", "country": "Kazakhstan", "latitude": "43.25", "longitude": "76.91667", "population": 1977011}, {"name": "Khartoum", "country": "Sudan", "latitude": "15.55177", "longitude": "32.53241", "population": 1974647}, {"name": "Sapporo", "country": "Japan", "latitude": "43.06667", "longitude": "141.35", "population": 1973832}, {"name": "Accra", "country": "Ghana", "latitude": "5.55602", "longitude": "-0.1969", "population": 1963264}, {"name": "Curitiba", "country": "Brazil", "latitude": "-25.42778", "longitude": "-49.27306", "population": 1948626}, {"name": "Ordos", "country": "China", "latitude": "39.6086", "longitude": "109.78157", "population": 1940653}, {"name": "Sanaa", "country": "Yemen", "latitude": "15.35472", "longitude": "44.20667", "population": 1937451}, {"name": "Tijuana", "country": "Mexico", "latitude": "32.5027", "longitude": "-117.00371", "population": 1922523}, {"name": "Beirut", "country": "Lebanon", "latitude": "33.89332", "longitude": "35.50157", "population": 1916100}, {"name": "Tangerang", "country": "Indonesia", "latitude": "-6.17806", "longitude": "106.63", "population": 1911914}, {"name": "Jieyang", "country": "China", "latitude": "23.5418", "longitude": "116.36581", "population": 1899394}, {"name": "Jilin", "country": "China", "latitude": "43.85083", "longitude": "126.56028", "population": 1895865}, {"name": "Bucharest", "country": "Romania", "latitude": "44.43225", "longitude": "26.10626", "population": 1877155}, {"name": "Camayenne", "country": "Guinea", "latitude": "9.535", "longitude": "-13.68778", "population": 1871242}, {"name": "Kakamega", "country": "Kenya", "latitude": "0.28422", "longitude": "34.75229", "population": 1867579}, {"name": "Port Harcourt", "country": "Nigeria", "latitude": "4.77742", "longitude": "7.0134", "population": 1865000}, {"name": "Nanchong", "country": "China", "latitude": "30.79508", "longitude": "106.08473", "population": 1858875}, {"name": "Datong", "country": "China", "latitude": "40.09361", "longitude": "113.29139", "population": 1850000}, {"name": "Hamburg", "country": "Germany", "latitude": "53.55073", "longitude": "9.99302", "population": 1845229}, {"name": "Indore", "country": "India", "latitude": "22.71792", "longitude": "75.8333", "population": 1837041}, {"name": "Santa Cruz de la Sierra", "country": "Bolivia", "latitude": "-17.78629", "longitude": "-63.18117", "population": 1831434}, {"name": "Vadodara", "country": "India", "latitude": "22.29941", "longitude": "73.20812", "population": 1822221}, {"name": "Iztapalapa", "country": "Mexico", "latitude": "19.35529", "longitude": "-99.06224", "population": 1815786}, {"name": "Nanyang", "country": "China", "latitude": "32.99472", "longitude": "112.53278", "population": 1811812}, {"name": "Gaziantep", "country": "Turkey", "latitude": "37.05944", "longitude": "37.3825", "population": 1808948}, {"name": "Abu Dhabi", "country": "United Arab Emirates", "latitude": "24.45118", "longitude": "54.39696", "population": 1807000}, {"name": "Jiangmen", "country": "China", "latitude": "22.58333", "longitude": "113.08333", "population": 1795459}, {"name": "Diyarbakir", "country": "Turkey", "latitude": "37.91363", "longitude": "40.21721", "population": 1791373}, {"name": "Benin City", "country": "Nigeria", "latitude": "6.33815", "longitude": "5.62575", "population": 1782000}, {"name": "Jiangyin", "country": "China", "latitude": "31.91102", "longitude": "120.26302", "population": 1779515}, {"name": "Adana", "country": "Turkey", "latitude": "36.98615", "longitude": "35.32531", "population": 1779463}, {"name": "Davao", "country": "Philippines", "latitude": "7.07306", "longitude": "125.61278", "population": 1776949}, {"name": "Fuyang", "country": "China", "latitude": "32.9", "longitude": "115.81667", "population": 1768947}, {"name": "Conakry", "country": "Guinea", "latitude": "9.53795", "longitude": "-13.67729", "population": 1767200}, {"name": "Montreal", "country": "Canada", "latitude": "45.50884", "longitude": "-73.58781", "population": 1762949}, {"name": "Bayan Nur", "country": "China", "latitude": "40.74143", "longitude": "107.38599", "population": 1760000}, {"name": "Maracay", "country": "Venezuela", "latitude": "10.23535", "longitude": "-67.59113", "population": 1754256}, {"name": "Chaozhou", "country": "China", "latitude": "23.65396", "longitude": "116.62262", "population": 1750945}, {"name": "Rawalpindi", "country": "Pakistan", "latitude": "33.59733", "longitude": "73.0479", "population": 1743101}, {"name": "Minsk", "country": "Belarus", "latitude": "53.9", "longitude": "27.56667", "population": 1742124}, {"name": "Budapest", "country": "Hungary", "latitude": "47.49835", "longitude": "19.04045", "population": 1741041}, {"name": "Qingyuan", "country": "China", "latitude": "23.7", "longitude": "113.03333", "population": 1738424}, {"name": "Tai'an", "country": "China", "latitude": "36.18528", "longitude": "117.12", "population": 1735425}, {"name": "Leon de los Aldama", "country": "Mexico", "latitude": "21.12908", "longitude": "-101.67374", "population": 1721199}, {"name": "Warsaw", "country": "Poland", "latitude": "52.22977", "longitude": "21.01178", "population": 1702139}, {"name": "Soweto", "country": "South Africa", "latitude": "-26.26781", "longitude": "27.85849", "population": 1695047}, {"name": "Puebla", "country": "Mexico", "latitude": "19.03793", "longitude": "-98.20346", "population": 1692181}, {"name": "Vienna", "country": "Austria", "latitude": "48.20849", "longitude": "16.37208", "population": 1691468}, {"name": "Mosul", "country": "Iraq", "latitude": "36.335", "longitude": "43.11889", "population": 1683000}, {"name": "Kallakurichi", "country": "India", "latitude": "11.73379", "longitude": "78.95925", "population": 1682687}, {"name": "Xining", "country": "China", "latitude": "36.62554", "longitude": "101.75739", "population": 1677177}, {"name": "Changshu", "country": "China", "latitude": "31.64615", "longitude": "120.74221", "population": 1677050}, {"name": "Palembang", "country": "Indonesia", "latitude": "-2.91673", "longitude": "104.7458", "population": 1668848}, {"name": "Huainan", "country": "China", "latitude": "32.62639", "longitude": "116.99694", "population": 1666826}, {"name": "Rabat", "country": "Morocco", "latitude": "34.01325", "longitude": "-6.83255", "population": 1655753}, {"name": "Semarang", "country": "Indonesia", "latitude": "-6.99306", "longitude": "110.42083", "population": 1653524}, {"name": "Recife", "country": "Brazil", "latitude": "-8.05389", "longitude": "-34.88111", "population": 1653461}, {"name": "Suzhou", "country": "China", "latitude": "33.63611", "longitude": "116.97889", "population": 1647642}, {"name": "Ecatepec de Morelos", "country": "Mexico", "latitude": "19.60492", "longitude": "-99.06064", "population": 1645352}, {"name": "Lu'an", "country": "China", "latitude": "31.73561", "longitude": "116.51688", "population": 1644344}, {"name": "Barcelona", "country": "Spain", "latitude": "41.38879", "longitude": "2.15899", "population": 1620343}, {"name": "Valencia", "country": "Venezuela", "latitude": "10.16202", "longitude": "-68.00765", "population": 1619470}, {"name": "Pretoria", "country": "South Africa", "latitude": "-25.74486", "longitude": "28.18783", "population": 1619438}, {"name": "Yancheng", "country": "China", "latitude": "33.3575", "longitude": "120.1573", "population": 1615717}, {"name": "Novosibirsk", "country": "Russia", "latitude": "55.0415", "longitude": "82.9346", "population": 1612833}, {"name": "Erbil", "country": "Iraq", "latitude": "36.18333", "longitude": "44.01193", "population": 1612700}, {"name": "Phoenix", "country": "United States", "latitude": "33.44838", "longitude": "-112.07404", "population": 1608139}, {"name": "Taizhou", "country": "China", "latitude": "32.49069", "longitude": "119.90812", "population": 1607108}, {"name": "Daqing", "country": "China", "latitude": "46.58333", "longitude": "125", "population": 1604027}, {"name": "Fukuoka", "country": "Japan", "latitude": "33.6", "longitude": "130.41667", "population": 1603543}, {"name": "Manila", "country": "Philippines", "latitude": "14.6042", "longitude": "120.9822", "population": 1600000}, {"name": "Patna", "country": "India", "latitude": "25.59408", "longitude": "85.13563", "population": 1599920}, {"name": "Bhopal", "country": "India", "latitude": "23.25469", "longitude": "77.40289", "population": 1599914}, {"name": "Wuhu", "country": "China", "latitude": "31.35259", "longitude": "118.42947", "population": 1598165}, {"name": "Santiago de Queretaro", "country": "Mexico", "latitude": "20.58806", "longitude": "-100.38806", "population": 1594212}, {"name": "Dazhou", "country": "China", "latitude": "31.2106", "longitude": "107.46308", "population": 1589435}, {"name": "Yangzhou", "country": "China", "latitude": "32.39722", "longitude": "119.43583", "population": 1584237}, {"name": "Kaduna", "country": "Nigeria", "latitude": "10.52641", "longitude": "7.43879", "population": 1582102}, {"name": "Mecca", "country": "Saudi Arabia", "latitude": "21.42664", "longitude": "39.82563", "population": 1578722}, {"name": "Philadelphia", "country": "United States", "latitude": "39.95238", "longitude": "-75.16362", "population": 1576251}, {"name": "Phnom Penh", "country": "Cambodia", "latitude": "11.56245", "longitude": "104.91601", "population": 1573544}, {"name": "Guilin", "country": "China", "latitude": "25.28022", "longitude": "110.29639", "population": 1572300}, {"name": "Damascus", "country": "Syria", "latitude": "33.5102", "longitude": "36.29128", "population": 1569394}, {"name": "Zhaoqing", "country": "China", "latitude": "23.04893", "longitude": "112.46091", "population": 1553109}, {"name": "Onitsha", "country": "Nigeria", "latitude": "6.14978", "longitude": "6.78569", "population": 1553000}, {"name": "Mianyang", "country": "China", "latitude": "31.46784", "longitude": "104.68168", "population": 1550000}, {"name": "Isfahan", "country": "Iran", "latitude": "32.65246", "longitude": "51.67462", "population": 1547164}, {"name": "Ludhiana", "country": "India", "latitude": "30.91204", "longitude": "75.85379", "population": 1545368}, {"name": "Harare", "country": "Zimbabwe", "latitude": "-17.82772", "longitude": "31.05337", "population": 1542813}, {"name": "Putian", "country": "China", "latitude": "25.43944", "longitude": "119.01028", "population": 1539389}, {"name": "Shangqiu", "country": "China", "latitude": "34.45", "longitude": "115.65", "population": 1536392}, {"name": "Goiania", "country": "Brazil", "latitude": "-16.67861", "longitude": "-49.25389", "population": 1536097}, {"name": "Kawasaki", "country": "Japan", "latitude": "35.52056", "longitude": "139.71722", "population": 1531646}, {"name": "Kobe", "country": "Japan", "latitude": "34.6913", "longitude": "135.183", "population": 1522188}, {"name": "Kaohsiung", "country": "Taiwan", "latitude": "22.61626", "longitude": "120.31333", "population": 1519711}, {"name": "Stockholm", "country": "Sweden", "latitude": "59.32938", "longitude": "18.06871", "population": 1515017}, {"name": "Ciudad Juarez", "country": "Mexico", "latitude": "31.72024", "longitude": "-106.46084", "population": 1501551}, {"name": "Khulna", "country": "Bangladesh", "latitude": "22.80979", "longitude": "89.56439", "population": 1500689}, {"name": "Caloocan City", "country": "Philippines", "latitude": "14.64953", "longitude": "120.96788", "population": 1500000}, {"name": "Belem", "country": "Brazil", "latitude": "-1.45583", "longitude": "-48.50444", "population": 1499641}, {"name": "Yekaterinburg", "country": "Russia", "latitude": "56.8519", "longitude": "60.6122", "population": 1495066}, {"name": "Gwangju", "country": "South Korea", "latitude": "35.15472", "longitude": "126.91556", "population": 1490092}, {"name": "Porto Alegre", "country": "Brazil", "latitude": "-30.03283", "longitude": "-51.23019", "population": 1488252}, {"name": "Yinchuan", "country": "China", "latitude": "38.46806", "longitude": "106.27306", "population": 1487579}, {"name": "Manhattan", "country": "United States", "latitude": "40.78343", "longitude": "-73.96625", "population": 1487536}, {"name": "Taizhou", "country": "China", "latitude": "28.66266", "longitude": "121.43312", "population": 1485502}, {"name": "Asuncion", "country": "Paraguay", "latitude": "-25.28646", "longitude": "-57.647", "population": 1482200}, {"name": "Yiwu", "country": "China", "latitude": "29.31506", "longitude": "120.07676", "population": 1481384}, {"name": "Zapopan", "country": "Mexico", "latitude": "20.72356", "longitude": "-103.38479", "population": 1476491}, {"name": "Daejeon", "country": "South Korea", "latitude": "36.34913", "longitude": "127.38493", "population": 1469543}, {"name": "Quanzhou", "country": "China", "latitude": "24.91389", "longitude": "118.58583", "population": 1469157}, {"name": "Kumasi", "country": "Ghana", "latitude": "6.68848", "longitude": "-1.62443", "population": 1468609}, {"name": "Madurai", "country": "India", "latitude": "9.919", "longitude": "78.11953", "population": 1465625}, {"name": "Jinhua", "country": "China", "latitude": "29.10678", "longitude": "119.64421", "population": 1463990}, {"name": "Kyoto", "country": "Japan", "latitude": "35.02107", "longitude": "135.75385", "population": 1463723}, {"name": "Cixi", "country": "China", "latitude": "30.1764", "longitude": "121.2457", "population": 1457510}, {"name": "Changde", "country": "China", "latitude": "29.03205", "longitude": "111.69844", "population": 1457419}, {"name": "Kuala Lumpur", "country": "Malaysia", "latitude": "3.1412", "longitude": "101.68653", "population": 1453975}, {"name": "Kaifeng", "country": "China", "latitude": "34.7986", "longitude": "114.30742", "population": 1451741}, {"name": "Anshan", "country": "China", "latitude": "41.12361", "longitude": "122.99", "population": 1450000}, {"name": "Karaj", "country": "Iran", "latitude": "35.83266", "longitude": "50.99155", "population": 1448075}, {"name": "Kathmandu", "country": "Nepal", "latitude": "27.70169", "longitude": "85.3206", "population": 1442271}, {"name": "Baoji", "country": "China", "latitude": "34.36775", "longitude": "107.23705", "population": 1437802}, {"name": "Suqian", "country": "China", "latitude": "33.94917", "longitude": "118.29583", "population": 1437685}, {"name": "Multan", "country": "Pakistan", "latitude": "30.19679", "longitude": "71.47824", "population": 1437230}, {"name": "Liuzhou", "country": "China", "latitude": "24.32405", "longitude": "109.40698", "population": 1436599}, {"name": "Tirunelveli", "country": "India", "latitude": "8.72742", "longitude": "77.6838", "population": 1435844}, {"name": "San Antonio", "country": "United States", "latitude": "29.42412", "longitude": "-98.49363", "population": 1434625}, {"name": "Kharkiv", "country": "Ukraine", "latitude": "49.98081", "longitude": "36.25272", "population": 1433886}, {"name": "Zhangjiagang", "country": "China", "latitude": "31.865", "longitude": "120.53889", "population": 1432044}, {"name": "Agra", "country": "India", "latitude": "27.18333", "longitude": "78.01667", "population": 1430055}, {"name": "Tabriz", "country": "Iran", "latitude": "38.08", "longitude": "46.2919", "population": 1424641}, {"name": "Makassar", "country": "Indonesia", "latitude": "-5.14861", "longitude": "119.43194", "population": 1423877}, {"name": "Jinjiang", "country": "China", "latitude": "24.81978", "longitude": "118.57415", "population": 1416151}, {"name": "Bozhou", "country": "China", "latitude": "33.87722", "longitude": "115.77028", "population": 1409436}, {"name": "Qujing", "country": "China", "latitude": "25.48333", "longitude": "103.78333", "population": 1408500}, {"name": "Zhanjiang", "country": "China", "latitude": "21.23391", "longitude": "110.38749", "population": 1400709}, {"name": "Fushun", "country": "China", "latitude": "41.88669", "longitude": "123.94363", "population": 1400646}, {"name": "San Diego", "country": "United States", "latitude": "32.71571", "longitude": "-117.16472", "population": 1394928}, {"name": "Antananarivo", "country": "Madagascar", "latitude": "-18.91368", "longitude": "47.53613", "population": 1391433}, {"name": "Rajkot", "country": "India", "latitude": "22.29161", "longitude": "70.79322", "population": 1390640}, {"name": "Luoyang", "country": "China", "latitude": "34.68361", "longitude": "112.45361", "population": 1390581}, {"name": "Konya", "country": "Turkey", "latitude": "37.87135", "longitude": "32.48464", "population": 1390051}, {"name": "Adelaide", "country": "Australia", "latitude": "-34.92866", "longitude": "138.59863", "population": 1387290}, {"name": "Hyderabad", "country": "Pakistan", "latitude": "25.39689", "longitude": "68.37718", "population": 1386330}, {"name": "Guadalajara", "country": "Mexico", "latitude": "20.66682", "longitude": "-103.39182", "population": 1385629}, {"name": "The Bronx", "country": "United States", "latitude": "40.84985", "longitude": "-73.86641", "population": 1385108}, {"name": "Gujranwala", "country": "Pakistan", "latitude": "32.15567", "longitude": "74.18705", "population": 1384471}, {"name": "Guankou", "country": "China", "latitude": "28.15861", "longitude": "113.62709", "population": 1380000}, {"name": "Lubumbashi", "country": "Democratic Republic of the Congo", "latitude": "-11.66089", "longitude": "27.47938", "population": 1373770}, {"name": "Milan", "country": "Italy", "latitude": "45.46427", "longitude": "9.18951", "population": 1371498}, {"name": "South Tangerang", "country": "Indonesia", "latitude": "-6.28862", "longitude": "106.71789", "population": 1365688}, {"name": "Najafgarh", "country": "India", "latitude": "28.60922", "longitude": "76.97982", "population": 1365000}, {"name": "Handan", "country": "China", "latitude": "36.60999", "longitude": "114.48764", "population": 1358318}, {"name": "Kampala", "country": "Uganda", "latitude": "0.31628", "longitude": "32.58219", "population": 1353189}, {"name": "Yichang", "country": "China", "latitude": "30.71444", "longitude": "111.28472", "population": 1350150}, {"name": "Heze", "country": "China", "latitude": "35.23929", "longitude": "115.47358", "population": 1346717}, {"name": "Antalya", "country": "Turkey", "latitude": "36.90812", "longitude": "30.69556", "population": 1344000}, {"name": "Abobo", "country": "Ivory Coast", "latitude": "5.41613", "longitude": "-4.0159", "population": 1340083}, {"name": "Jamshedpur", "country": "India", "latitude": "22.80278", "longitude": "86.18545", "population": 1339438}, {"name": "Douala", "country": "Cameroon", "latitude": "4.04827", "longitude": "9.70428", "population": 1338082}, {"name": "Basrah", "country": "Iraq", "latitude": "30.50852", "longitude": "47.7804", "population": 1326564}, {"name": "Saitama", "country": "Japan", "latitude": "35.90807", "longitude": "139.65657", "population": 1324854}, {"name": "Gorakhpur", "country": "India", "latitude": "29.44768", "longitude": "75.67206", "population": 1324570}, {"name": "Liupanshui", "country": "China", "latitude": "26.59444", "longitude": "104.83333", "population": 1320825}, {"name": "Cordoba", "country": "Argentina", "latitude": "-31.4135", "longitude": "-64.18105", "population": 1317298}, {"name": "Maoming", "country": "China", "latitude": "21.66625", "longitude": "110.91364", "population": 1307802}, {"name": "Dallas", "country": "United States", "latitude": "32.78306", "longitude": "-96.80667", "population": 1300092}, {"name": "Callao", "country": "Peru", "latitude": "-12.05659", "longitude": "-77.11814", "population": 1300000}, {"name": "Medina", "country": "Saudi Arabia", "latitude": "24.46861", "longitude": "39.61417", "population": 1300000}, {"name": "Yaounde", "country": "Cameroon", "latitude": "3.86667", "longitude": "11.51667", "population": 1299369}, {"name": "Bamako", "country": "Mali", "latitude": "12.65", "longitude": "-8", "population": 1297281}, {"name": "Qinzhou", "country": "China", "latitude": "21.98247", "longitude": "108.65061", "population": 1296300}, {"name": "Luohe", "country": "China", "latitude": "33.56394", "longitude": "114.04272", "population": 1294974}, {"name": "Xiangyang", "country": "China", "latitude": "32.0422", "longitude": "112.14479", "population": 1294733}, {"name": "Yangjiang", "country": "China", "latitude": "21.85563", "longitude": "111.96272", "population": 1292987}, {"name": "Nashik", "country": "India", "latitude": "19.99727", "longitude": "73.79096", "population": 1289497}, {"name": "Yixing", "country": "China", "latitude": "31.36059", "longitude": "119.82016", "population": 1285785}, {"name": "Brazzaville", "country": "Republic of the Congo", "latitude": "-4.26613", "longitude": "15.28318", "population": 1284609}, {"name": "Pimpri", "country": "India", "latitude": "18.62292", "longitude": "73.80696", "population": 1284606}, {"name": "Amman", "country": "Jordan", "latitude": "31.95522", "longitude": "35.94503", "population": 1275857}, {"name": "Sharjah", "country": "United Arab Emirates", "latitude": "25.33737", "longitude": "55.41206", "population": 1274749}, {"name": "Budta", "country": "Philippines", "latitude": "7.20417", "longitude": "124.43972", "population": 1273715}, {"name": "Belgrade", "country": "Serbia", "latitude": "44.80401", "longitude": "20.46513", "population": 1273651}, {"name": "Montevideo", "country": "Uruguay", "latitude": "-34.90328", "longitude": "-56.18816", "population": 1270737}, {"name": "Lusaka", "country": "Zambia", "latitude": "-15.40669", "longitude": "28.28713", "population": 1267440}, {"name": "Xuchang", "country": "China", "latitude": "34.03189", "longitude": "113.86299", "population": 1265536}, {"name": "Kalyan", "country": "India", "latitude": "19.2437", "longitude": "73.13554", "population": 1262255}, {"name": "Zigong", "country": "China", "latitude": "29.34162", "longitude": "104.77689", "population": 1262064}, {"name": "Thane", "country": "India", "latitude": "19.19704", "longitude": "72.96355", "population": 1261517}, {"name": "Munich", "country": "Germany", "latitude": "48.13743", "longitude": "11.57549", "population": 1260391}, {"name": "Nizhniy Novgorod", "country": "Russia", "latitude": "56.32867", "longitude": "44.00205", "population": 1259013}, {"name": "Jepara", "country": "Indonesia", "latitude": "-6.5924", "longitude": "110.671", "population": 1257912}, {"name": "Xuzhou", "country": "China", "latitude": "34.20442", "longitude": "117.28386", "population": 1253991}, {"name": "Dammam", "country": "Saudi Arabia", "latitude": "26.43442", "longitude": "50.10326", "population": 1252523}, {"name": "Ra's Bayrut", "country": "Lebanon", "latitude": "33.9", "longitude": "35.48333", "population": 1251739}, {"name": "Neijiang", "country": "China", "latitude": "29.58354", "longitude": "105.06216", "population": 1251095}, {"name": "Shiraz", "country": "Iran", "latitude": "29.61031", "longitude": "52.53113", "population": 1249942}, {"name": "Yiyang", "country": "China", "latitude": "28.58917", "longitude": "112.32833", "population": 1249807}, {"name": "Kazan", "country": "Russia", "latitude": "55.78874", "longitude": "49.12214", "population": 1243500}, {"name": "Suwon", "country": "South Korea", "latitude": "37.29111", "longitude": "127.00889", "population": 1241311}, {"name": "Jining", "country": "China", "latitude": "35.405", "longitude": "116.58139", "population": 1241012}, {"name": "Barquisimeto", "country": "Venezuela", "latitude": "10.0647", "longitude": "-69.35703", "population": 1240714}, {"name": "Shubra al Khaymah", "country": "Egypt", "latitude": "30.12511", "longitude": "31.25053", "population": 1240289}, {"name": "Abuja", "country": "Nigeria", "latitude": "9.05785", "longitude": "7.49508", "population": 1235880}, {"name": "Port-au-Prince", "country": "Haiti", "latitude": "18.54349", "longitude": "-72.33881", "population": 1234742}, {"name": "Xinyang", "country": "China", "latitude": "32.12278", "longitude": "114.06556", "population": 1230042}, {"name": "Liaocheng", "country": "China", "latitude": "36.45064", "longitude": "116.00247", "population": 1229768}, {"name": "Jinzhong", "country": "China", "latitude": "37.68403", "longitude": "112.75471", "population": 1226617}, {"name": "Meerut", "country": "India", "latitude": "28.98002", "longitude": "77.70636", "population": 1223184}, {"name": "Nowrangapur", "country": "India", "latitude": "19.23114", "longitude": "82.54826", "population": 1220946}, {"name": "Faridabad", "country": "India", "latitude": "28.41124", "longitude": "77.31316", "population": 1220229}, {"name": "Peshawar", "country": "Pakistan", "latitude": "34.008", "longitude": "71.57849", "population": 1218773}, {"name": "Karbala", "country": "Iraq", "latitude": "32.61603", "longitude": "44.02488", "population": 1218732}, {"name": "Changzhi", "country": "China", "latitude": "36.18389", "longitude": "113.10528", "population": 1214940}, {"name": "Tianshui", "country": "China", "latitude": "34.57952", "longitude": "105.74238", "population": 1212791}, {"name": "Mombasa", "country": "Kenya", "latitude": "-4.05466", "longitude": "39.66359", "population": 1208333}, {"name": "Mandalay", "country": "Myanmar", "latitude": "21.97473", "longitude": "96.08359", "population": 1208099}, {"name": "Barranquilla", "country": "Colombia", "latitude": "10.96854", "longitude": "-74.78132", "population": 1206319}, {"name": "Kayseri", "country": "Turkey", "latitude": "38.73222", "longitude": "35.48528", "population": 1204641}, {"name": "Chelyabinsk", "country": "Russia", "latitude": "55.15402", "longitude": "61.42915", "population": 1202371}, {"name": "Merida", "country": "Mexico", "latitude": "20.97537", "longitude": "-89.61696", "population": 1201000}, {"name": "Bulawayo", "country": "Zimbabwe", "latitude": "-20.15", "longitude": "28.58333", "population": 1200337}, {"name": "Shymkent", "country": "Kazakhstan", "latitude": "42.3", "longitude": "69.6", "population": 1200000}, {"name": "Santiago de los Caballeros", "country": "Dominican Republic", "latitude": "19.4517", "longitude": "-70.69703", "population": 1200000}, {"name": "Omdurman", "country": "Sudan", "latitude": "15.64453", "longitude": "32.47773", "population": 1200000}, {"name": "Hiroshima", "country": "Japan", "latitude": "34.4", "longitude": "132.45", "population": 1199391}, {"name": "Weinan", "country": "China", "latitude": "34.50355", "longitude": "109.50891", "population": 1199290}, {"name": "Ghaziabad", "country": "India", "latitude": "28.66535", "longitude": "77.43915", "population": 1199191}, {"name": "Dhanbad", "country": "India", "latitude": "23.79759", "longitude": "86.42992", "population": 1196214}, {"name": "Dombivli", "country": "India", "latitude": "19.21667", "longitude": "73.08333", "population": 1193000}, {"name": "Maputo", "country": "Mozambique", "latitude": "-25.96553", "longitude": "32.58322", "population": 1191613}, {"name": "Gustavo Adolfo Madero", "country": "Mexico", "latitude": "19.49392", "longitude": "-99.11075", "population": 1185772}, {"name": "Jiaxing", "country": "China", "latitude": "30.7522", "longitude": "120.75", "population": 1180000}, {"name": "Omsk", "country": "Russia", "latitude": "54.99244", "longitude": "73.36859", "population": 1172070}, {"name": "Guarulhos", "country": "Brazil", "latitude": "-23.46278", "longitude": "-46.53333", "population": 1169577}, {"name": "Bandar Lampung", "country": "Indonesia", "latitude": "-5.42917", "longitude": "105.26111", "population": 1166066}, {"name": "Prague", "country": "Czechia", "latitude": "50.08804", "longitude": "14.42076", "population": 1165581}, {"name": "Varanasi", "country": "India", "latitude": "25.31668", "longitude": "83.01041", "population": 1164404}, {"name": "Batam", "country": "Indonesia", "latitude": "1.14937", "longitude": "104.02491", "population": 1164352}, {"name": "Jiujiang", "country": "China", "latitude": "29.70475", "longitude": "116.00206", "population": 1164268}, {"name": "Samara", "country": "Russia", "latitude": "53.20007", "longitude": "50.15", "population": 1163399}, {"name": "Copenhagen", "country": "Denmark", "latitude": "55.67594", "longitude": "12.56553", "population": 1153615}, {"name": "Sofia", "country": "Bulgaria", "latitude": "42.69751", "longitude": "23.32415", "population": 1152556}, {"name": "Tripoli", "country": "Libya", "latitude": "32.88743", "longitude": "13.18733", "population": 1150989}, {"name": "Anyang", "country": "China", "latitude": "36.096", "longitude": "114.38278", "population": 1146839}, {"name": "Birmingham", "country": "United Kingdom", "latitude": "52.48142", "longitude": "-1.89983", "population": 1144919}, {"name": "Bijie", "country": "China", "latitude": "27.30193", "longitude": "105.28627", "population": 1137383}, {"name": "Monterrey", "country": "Mexico", "latitude": "25.67507", "longitude": "-100.31847", "population": 1135512}, {"name": "Kigali", "country": "Rwanda", "latitude": "-1.94995", "longitude": "30.05885", "population": 1132686}, {"name": "Rostov-na-Donu", "country": "Russia", "latitude": "47.23135", "longitude": "39.72328", "population": 1130305}, {"name": "Zhuzhou", "country": "China", "latitude": "27.83333", "longitude": "113.15", "population": 1129687}, {"name": "Malingao", "country": "Philippines", "latitude": "7.16083", "longitude": "124.475", "population": 1121974}, {"name": "Ufa", "country": "Russia", "latitude": "54.74306", "longitude": "55.96779", "population": 1120547}, {"name": "Ranchi", "country": "India", "latitude": "23.34316", "longitude": "85.3094", "population": 1120374}, {"name": "Baku", "country": "Azerbaijan", "latitude": "40.37767", "longitude": "49.89201", "population": 1116513}, {"name": "Shangrao", "country": "China", "latitude": "28.45179", "longitude": "117.94287", "population": 1116486}, {"name": "Huaibei", "country": "China", "latitude": "33.97444", "longitude": "116.79167", "population": 1113321}, {"name": "Meishan", "country": "China", "latitude": "30.04392", "longitude": "103.83696", "population": 1107742}, {"name": "Ciudad Nezahualcoyotl", "country": "Mexico", "latitude": "19.40061", "longitude": "-99.01483", "population": 1104585}, {"name": "Bogor", "country": "Indonesia", "latitude": "-6.59444", "longitude": "106.78917", "population": 1099422}, {"name": "Sendai", "country": "Japan", "latitude": "38.26667", "longitude": "140.86667", "population": 1096704}, {"name": "Yerevan", "country": "Armenia", "latitude": "40.18111", "longitude": "44.51361", "population": 1093485}, {"name": "Amritsar", "country": "India", "latitude": "31.62234", "longitude": "74.87534", "population": 1092450}, {"name": "Krasnoyarsk", "country": "Russia", "latitude": "56.01839", "longitude": "92.86717", "population": 1090811}, {"name": "Fuzhou", "country": "China", "latitude": "27.95999", "longitude": "116.33333", "population": 1089888}, {"name": "Ouagadougou", "country": "Burkina Faso", "latitude": "12.36566", "longitude": "-1.53388", "population": 1086505}, {"name": "Guigang", "country": "China", "latitude": "23.11603", "longitude": "109.59472", "population": 1086327}, {"name": "Pekanbaru", "country": "Indonesia", "latitude": "0.51667", "longitude": "101.44167", "population": 1085000}, {"name": "Hengyang", "country": "China", "latitude": "26.88946", "longitude": "112.61888", "population": 1075516}, {"name": "Prayagraj", "country": "India", "latitude": "25.44478", "longitude": "81.84322", "population": 1073438}, {"name": "Goyang-si", "country": "South Korea", "latitude": "37.65639", "longitude": "126.835", "population": 1073069}, {"name": "Visakhapatnam", "country": "India", "latitude": "17.68009", "longitude": "83.20161", "population": 1063178}, {"name": "Yulin", "country": "China", "latitude": "22.6305", "longitude": "110.14686", "population": 1056743}, {"name": "Jingzhou", "country": "China", "latitude": "30.35028", "longitude": "112.19028", "population": 1052282}, {"name": "Tbilisi", "country": "Georgia", "latitude": "41.69411", "longitude": "44.83368", "population": 1049498}, {"name": "Voronezh", "country": "Russia", "latitude": "51.67204", "longitude": "39.1843", "population": 1047549}, {"name": "Xinxiang", "country": "China", "latitude": "35.19033", "longitude": "113.80151", "population": 1047088}, {"name": "Yichun", "country": "China", "latitude": "27.83333", "longitude": "114.4", "population": 1045952}, {"name": "Taichung", "country": "Taiwan", "latitude": "24.1469", "longitude": "120.6839", "population": 1040725}, {"name": "Teni", "country": "India", "latitude": "10.01115", "longitude": "77.47772", "population": 1034724}, {"name": "Xianyang", "country": "China", "latitude": "34.33778", "longitude": "108.70261", "population": 1034081}, {"name": "Mexicali", "country": "Mexico", "latitude": "32.62781", "longitude": "-115.45446", "population": 1032686}, {"name": "Matola", "country": "Mozambique", "latitude": "-25.96222", "longitude": "32.45889", "population": 1032197}, {"name": "Seongnam-si", "country": "South Korea", "latitude": "37.43861", "longitude": "127.13778", "population": 1031935}, {"name": "Maceio", "country": "Brazil", "latitude": "-9.66583", "longitude": "-35.73528", "population": 1031597}, {"name": "Campinas", "country": "Brazil", "latitude": "-22.90556", "longitude": "-47.06083", "population": 1031554}, {"name": "Sanya", "country": "China", "latitude": "18.24306", "longitude": "109.505", "population": 1031396}, {"name": "Rangpur", "country": "Bangladesh", "latitude": "25.74664", "longitude": "89.25166", "population": 1031388}, {"name": "Kirkuk", "country": "Iraq", "latitude": "35.46806", "longitude": "44.39222", "population": 1031000}, {"name": "Jabalpur", "country": "India", "latitude": "23.16697", "longitude": "79.95006", "population": 1030168}, {"name": "Comilla", "country": "Bangladesh", "latitude": "23.46186", "longitude": "91.18503", "population": 1030000}, {"name": "Shaoguan", "country": "China", "latitude": "24.8", "longitude": "113.58333", "population": 1028460}, {"name": "Haora", "country": "India", "latitude": "22.57688", "longitude": "88.31857", "population": 1027672}, {"name": "San Jose", "country": "United States", "latitude": "37.33939", "longitude": "-121.89496", "population": 1026908}, {"name": "Longyan", "country": "China", "latitude": "25.07485", "longitude": "117.01775", "population": 1025087}, {"name": "Dublin", "country": "Ireland", "latitude": "53.33306", "longitude": "-6.24889", "population": 1024027}, {"name": "Tiruchirappalli", "country": "India", "latitude": "10.8155", "longitude": "78.69651", "population": 1022518}, {"name": "Yongzhou", "country": "China", "latitude": "26.42389", "longitude": "111.61306", "population": 1020715}, {"name": "Calgary", "country": "Canada", "latitude": "51.05011", "longitude": "-114.08529", "population": 1019942}, {"name": "Brussels", "country": "Belgium", "latitude": "50.85045", "longitude": "4.34878", "population": 1019022}, {"name": "Sambhaji Nagar", "country": "India", "latitude": "19.87757", "longitude": "75.34226", "population": 1016441}, {"name": "Huzhou", "country": "China", "latitude": "30.8703", "longitude": "120.0933", "population": 1015937}, {"name": "Odesa", "country": "Ukraine", "latitude": "46.48572", "longitude": "30.74383", "population": 1015826}, {"name": "Volgograd", "country": "Russia", "latitude": "48.71939", "longitude": "44.50183", "population": 1013533}, {"name": "Edmonton", "country": "Canada", "latitude": "53.55014", "longitude": "-113.46871", "population": 1010899}, {"name": "Wuwei", "country": "China", "latitude": "37.92672", "longitude": "102.63202", "population": 1010295}, {"name": "Namangan", "country": "Uzbekistan", "latitude": "40.9983", "longitude": "71.67257", "population": 1010000}, {"name": "Arequipa", "country": "Peru", "latitude": "-16.39889", "longitude": "-71.535", "population": 1008290}, {"name": "Hanzhong", "country": "China", "latitude": "33.07507", "longitude": "107.02214", "population": 1006557}, {"name": "Hezhou", "country": "China", "latitude": "24.40357", "longitude": "111.56675", "population": 1005490}, {"name": "Bujumbura", "country": "Burundi", "latitude": "-3.38193", "longitude": "29.36142", "population": 1000000}, {"name": "Shivaji Nagar", "country": "India", "latitude": "18.53017", "longitude": "73.85263", "population": 1000000}, {"name": "Zhu Cheng City", "country": "China", "latitude": "35.99502", "longitude": "119.40259", "population": 1000000}, {"name": "Dongying", "country": "China", "latitude": "37.46271", "longitude": "118.49165", "population": 998968}, {"name": "Luzhou", "country": "China", "latitude": "28.8903", "longitude": "105.42575", "population": 998900}, {"name": "Solapur", "country": "India", "latitude": "17.67152", "longitude": "75.91044", "population": 997281}, {"name": "Guatemala City", "country": "Guatemala", "latitude": "14.64072", "longitude": "-90.51327", "population": 994938}, {"name": "Meizhou", "country": "China", "latitude": "24.28859", "longitude": "116.11768", "population": 992351}, {"name": "Yueyang", "country": "China", "latitude": "29.37455", "longitude": "113.09481", "population": 991465}, {"name": "Laiwu", "country": "China", "latitude": "36.19278", "longitude": "117.65694", "population": 989535}, {"name": "Da Nang", "country": "Vietnam", "latitude": "16.06778", "longitude": "108.22083", "population": 988561}, {"name": "Benxi", "country": "China", "latitude": "41.28861", "longitude": "123.765", "population": 987717}, {"name": "Perm", "country": "Russia", "latitude": "58.01046", "longitude": "56.25017", "population": 982419}, {"name": "Chiba", "country": "Japan", "latitude": "35.6", "longitude": "140.11667", "population": 979768}, {"name": "Pingdingshan", "country": "China", "latitude": "33.73847", "longitude": "113.30119", "population": 979130}, {"name": "Srinagar", "country": "India", "latitude": "34.08565", "longitude": "74.80555", "population": 975857}, {"name": "Zaria", "country": "Nigeria", "latitude": "11.11128", "longitude": "7.7227", "population": 975153}, {"name": "Managua", "country": "Nicaragua", "latitude": "12.13282", "longitude": "-86.2504", "population": 973087}, {"name": "Bengbu", "country": "China", "latitude": "32.94083", "longitude": "117.36083", "population": 972784}, {"name": "Jerusalem", "country": "Israel", "latitude": "31.76904", "longitude": "35.21633", "population": 971800}, {"name": "Dnipro", "country": "Ukraine", "latitude": "48.46664", "longitude": "35.04066", "population": 968502}, {"name": "Port Elizabeth", "country": "South Africa", "latitude": "-33.96109", "longitude": "25.61494", "population": 967677}, {"name": "Fes", "country": "Morocco", "latitude": "34.03313", "longitude": "-5.00028", "population": 964891}, {"name": "Cebu City", "country": "Philippines", "latitude": "10.31672", "longitude": "123.89071", "population": 964169}, {"name": "Koeln", "country": "Germany", "latitude": "50.93333", "longitude": "6.95", "population": 963395}, {"name": "Tiruppur", "country": "India", "latitude": "11.11541", "longitude": "77.35456", "population": 963173}, {"name": "Ulsan", "country": "South Korea", "latitude": "35.53722", "longitude": "129.31667", "population": 962865}, {"name": "Chandigarh", "country": "India", "latitude": "30.73629", "longitude": "76.7884", "population": 960787}, {"name": "Xiangtan", "country": "China", "latitude": "27.85", "longitude": "112.9", "population": 959303}, {"name": "Linfen", "country": "China", "latitude": "36.08889", "longitude": "111.51889", "population": 959198}, {"name": "Victoria", "country": "Hong Kong", "latitude": "22.2875", "longitude": "114.14417", "population": 956800}, {"name": "Jacksonville", "country": "United States", "latitude": "30.33218", "longitude": "-81.65565", "population": 954614}, {"name": "Zhenjiang", "country": "China", "latitude": "32.21086", "longitude": "119.45508", "population": 950516}, {"name": "Ciudad Guayana", "country": "Venezuela", "latitude": "8.35122", "longitude": "-62.64102", "population": 950000}, {"name": "Rosario", "country": "Argentina", "latitude": "-32.94682", "longitude": "-60.63932", "population": 948312}, {"name": "Sultanah", "country": "Saudi Arabia", "latitude": "24.49258", "longitude": "39.58572", "population": 946697}, {"name": "Kitakyushu", "country": "Japan", "latitude": "33.85181", "longitude": "130.85034", "population": 940978}, {"name": "Monrovia", "country": "Liberia", "latitude": "6.30054", "longitude": "-10.7969", "population": 939524}, {"name": "Kingston", "country": "Jamaica", "latitude": "17.99702", "longitude": "-76.79358", "population": 937700}, {"name": "Baoshan", "country": "China", "latitude": "25.11626", "longitude": "99.16366", "population": 935618}, {"name": "Austin", "country": "United States", "latitude": "30.26715", "longitude": "-97.74306", "population": 931830}, {"name": "Rui'an", "country": "China", "latitude": "27.77605", "longitude": "120.65859", "population": 927383}, {"name": "Chihuahua", "country": "Mexico", "latitude": "28.63528", "longitude": "-106.08889", "population": 925762}, {"name": "Nay Pyi Taw", "country": "Myanmar", "latitude": "19.745", "longitude": "96.12972", "population": 925000}, {"name": "Jodhpur", "country": "India", "latitude": "26.26841", "longitude": "73.00594", "population": 921476}, {"name": "Trujillo", "country": "Peru", "latitude": "-8.11599", "longitude": "-79.02998", "population": 919899}, {"name": "Fort Worth", "country": "United States", "latitude": "32.72541", "longitude": "-97.32085", "population": 918915}, {"name": "Salem", "country": "India", "latitude": "11.65376", "longitude": "78.15538", "population": 917414}, {"name": "Sao Luis", "country": "Brazil", "latitude": "-2.52972", "longitude": "-44.30278", "population": 917237}, {"name": "Cartagena", "country": "Colombia", "latitude": "10.39972", "longitude": "-75.51444", "population": 914552}, {"name": "Laibin", "country": "China", "latitude": "23.74743", "longitude": "109.22222", "population": 910282}, {"name": "Naples", "country": "Italy", "latitude": "40.85216", "longitude": "14.26811", "population": 909048}, {"name": "Padang", "country": "Indonesia", "latitude": "-0.94924", "longitude": "100.35427", "population": 909040}, {"name": "Xiaogan", "country": "China", "latitude": "30.92689", "longitude": "113.92221", "population": 908266}, {"name": "Campo Grande", "country": "Brazil", "latitude": "-20.44278", "longitude": "-54.64639", "population": 906092}, {"name": "Columbus", "country": "United States", "latitude": "39.96118", "longitude": "-82.99879", "population": 905748}, {"name": "Ziyang", "country": "China", "latitude": "30.12108", "longitude": "104.64811", "population": 905729}, {"name": "Bobo-Dioulasso", "country": "Burkina Faso", "latitude": "11.17715", "longitude": "-4.2979", "population": 904920}, {"name": "Sale", "country": "Morocco", "latitude": "34.0531", "longitude": "-6.79846", "population": 903485}, {"name": "Quzhou", "country": "China", "latitude": "28.95944", "longitude": "118.86861", "population": 902767}, {"name": "Petaling Jaya", "country": "Malaysia", "latitude": "3.10726", "longitude": "101.60671", "population": 902086}, {"name": "Donetsk", "country": "Ukraine", "latitude": "48.023", "longitude": "37.80224", "population": 901645}, {"name": "Abu Ghurayb", "country": "Iraq", "latitude": "33.30563", "longitude": "44.18477", "population": 900000}, {"name": "Bishkek", "country": "Kyrgyzstan", "latitude": "42.87", "longitude": "74.59", "population": 900000}, {"name": "Qom", "country": "Iran", "latitude": "34.6401", "longitude": "50.8764", "population": 900000}, {"name": "Zaozhuang", "country": "China", "latitude": "34.86472", "longitude": "117.55417", "population": 899753}, {"name": "Krasnodar", "country": "Russia", "latitude": "45.04484", "longitude": "38.97603", "population": 899541}, {"name": "Guwahati", "country": "India", "latitude": "26.1844", "longitude": "91.7458", "population": 899094}, {"name": "Eskisehir", "country": "Turkey", "latitude": "39.77667", "longitude": "30.52056", "population": 898369}, {"name": "Aba", "country": "Nigeria", "latitude": "5.10658", "longitude": "7.36667", "population": 897560}, {"name": "Natal", "country": "Brazil", "latitude": "-5.795", "longitude": "-35.20944", "population": 896708}, {"name": "Pingxiang", "country": "China", "latitude": "27.61672", "longitude": "113.85353", "population": 893550}, {"name": "Indianapolis", "country": "United States", "latitude": "39.76838", "longitude": "-86.15804", "population": 887642}, {"name": "Zhoushan", "country": "China", "latitude": "29.98869", "longitude": "122.20488", "population": 882932}, {"name": "Gwalior", "country": "India", "latitude": "26.22983", "longitude": "78.17337", "population": 882458}, {"name": "Qiqihar", "country": "China", "latitude": "47.33922", "longitude": "123.96154", "population": 882364}, {"name": "Klang", "country": "Malaysia", "latitude": "3.03667", "longitude": "101.44333", "population": 879867}, {"name": "As Sulaymaniyah", "country": "Iraq", "latitude": "35.56496", "longitude": "45.4329", "population": 878146}, {"name": "Puning", "country": "China", "latitude": "23.31072", "longitude": "116.16869", "population": 874954}, {"name": "Mbuji-Mayi", "country": "Democratic Republic of the Congo", "latitude": "-6.13603", "longitude": "23.58979", "population": 874761}, {"name": "Vijayawada", "country": "India", "latitude": "16.50745", "longitude": "80.6466", "population": 874587}, {"name": "Charlotte", "country": "United States", "latitude": "35.22709", "longitude": "-80.84313", "population": 874579}, {"name": "Pikine", "country": "Senegal", "latitude": "14.76457", "longitude": "-17.39071", "population": 874062}, {"name": "Bhiwandi", "country": "India", "latitude": "19.30023", "longitude": "73.05881", "population": 874032}, {"name": "Teresina", "country": "Brazil", "latitude": "-5.08917", "longitude": "-42.80194", "population": 871126}, {"name": "Marseille", "country": "France", "latitude": "43.29695", "longitude": "5.38107", "population": 870731}, {"name": "Ankang", "country": "China", "latitude": "32.68", "longitude": "109.01722", "population": 870126}, {"name": "Mysore", "country": "India", "latitude": "12.29791", "longitude": "76.63925", "population": 868313}, {"name": "Langfang", "country": "China", "latitude": "39.52079", "longitude": "116.71471", "population": 868066}, {"name": "Jiaozuo", "country": "China", "latitude": "35.23972", "longitude": "113.23306", "population": 865413}, {"name": "San Francisco", "country": "United States", "latitude": "37.77493", "longitude": "-122.41942", "population": 864816}, {"name": "Liverpool", "country": "United Kingdom", "latitude": "53.41058", "longitude": "-2.97794", "population": 864122}, {"name": "Aden", "country": "Yemen", "latitude": "12.77944", "longitude": "45.03667", "population": 863000}, {"name": "Rohini", "country": "India", "latitude": "28.74322", "longitude": "77.06778", "population": 860000}, {"name": "Wanxian", "country": "China", "latitude": "30.81601", "longitude": "108.37407", "population": 859662}, {"name": "Guang'an", "country": "China", "latitude": "30.47413", "longitude": "106.63696", "population": 858159}, {"name": "Johor Bahru", "country": "Malaysia", "latitude": "1.4655", "longitude": "103.7578", "population": 858118}, {"name": "Kanayannur", "country": "India", "latitude": "9.96667", "longitude": "76.26667", "population": 851406}, {"name": "Tegucigalpa", "country": "Honduras", "latitude": "14.0818", "longitude": "-87.20681", "population": 850848}, {"name": "Bucheon-si", "country": "South Korea", "latitude": "37.49889", "longitude": "126.78306", "population": 850731}, {"name": "Turin", "country": "Italy", "latitude": "45.07049", "longitude": "7.68682", "population": 847287}, {"name": "Al Ain City", "country": "United Arab Emirates", "latitude": "24.19167", "longitude": "55.76056", "population": 846747}, {"name": "Cheongju-si", "country": "South Korea", "latitude": "36.63722", "longitude": "127.48972", "population": 846291}, {"name": "Saratov", "country": "Russia", "latitude": "51.54056", "longitude": "46.00861", "population": 844858}, {"name": "Ulan Bator", "country": "Mongolia", "latitude": "47.90771", "longitude": "106.88324", "population": 844818}, {"name": "Weihai", "country": "China", "latitude": "37.50914", "longitude": "122.11356", "population": 844310}, {"name": "Takeo", "country": "Cambodia", "latitude": "10.99081", "longitude": "104.78498", "population": 843931}, {"name": "Malang", "country": "Indonesia", "latitude": "-7.9797", "longitude": "112.6304", "population": 843810}, {"name": "Haiphong", "country": "Vietnam", "latitude": "20.86481", "longitude": "106.68345", "population": 841520}, {"name": "Cochabamba", "country": "Bolivia", "latitude": "-17.3895", "longitude": "-66.1568", "population": 841276}, {"name": "Ahvaz", "country": "Iran", "latitude": "31.31901", "longitude": "48.6842", "population": 841145}, {"name": "Hubli", "country": "India", "latitude": "15.34776", "longitude": "75.13378", "population": 840214}, {"name": "Ipoh", "country": "Malaysia", "latitude": "4.5841", "longitude": "101.0829", "population": 840000}, {"name": "Zhabei", "country": "China", "latitude": "31.25861", "longitude": "121.45972", "population": 840000}, {"name": "Xinyu", "country": "China", "latitude": "27.80429", "longitude": "114.93335", "population": 839488}, {"name": "Marrakesh", "country": "Morocco", "latitude": "31.63416", "longitude": "-7.99994", "population": 839296}, {"name": "Bhubaneswar", "country": "India", "latitude": "20.27241", "longitude": "85.83385", "population": 837000}, {"name": "Yibin", "country": "China", "latitude": "28.7593", "longitude": "104.63994", "population": 836340}, {"name": "Kampung Baru Subang", "country": "Malaysia", "latitude": "3.15", "longitude": "101.53333", "population": 833571}, {"name": "Bouake", "country": "Ivory Coast", "latitude": "7.69385", "longitude": "-5.03031", "population": 832371}, {"name": "Samarinda", "country": "Indonesia", "latitude": "-0.49167", "longitude": "117.14583", "population": 831460}, {"name": "Taicang", "country": "China", "latitude": "31.44778", "longitude": "121.09389", "population": 831113}, {"name": "Bien Hoa", "country": "Vietnam", "latitude": "10.94469", "longitude": "106.82432", "population": 830829}, {"name": "Nova Iguacu", "country": "Brazil", "latitude": "-22.75917", "longitude": "-43.45111", "population": 823302}, {"name": "Chenzhou", "country": "China", "latitude": "25.8", "longitude": "113.03333", "population": 822534}, {"name": "Duque de Caxias", "country": "Brazil", "latitude": "-22.78556", "longitude": "-43.31167", "population": 818329}, {"name": "Joao Pessoa", "country": "Brazil", "latitude": "-7.115", "longitude": "-34.86306", "population": 817511}, {"name": "Jos", "country": "Nigeria", "latitude": "9.92849", "longitude": "8.89212", "population": 816824}, {"name": "Barcelona", "country": "Venezuela", "latitude": "10.13625", "longitude": "-64.68618", "population": 815141}, {"name": "Ilorin", "country": "Nigeria", "latitude": "8.49664", "longitude": "4.54214", "population": 814192}, {"name": "Hermosillo", "country": "Mexico", "latitude": "29.1026", "longitude": "-110.97732", "population": 812229}, {"name": "Ottawa", "country": "Canada", "latitude": "45.41117", "longitude": "-75.69812", "population": 812129}, {"name": "Can Tho", "country": "Vietnam", "latitude": "10.03711", "longitude": "105.78825", "population": 812088}, {"name": "Culiacan", "country": "Mexico", "latitude": "24.79032", "longitude": "-107.38782", "population": 808416}, {"name": "Benghazi", "country": "Libya", "latitude": "32.11486", "longitude": "20.06859", "population": 807250}, {"name": "Malatya", "country": "Turkey", "latitude": "38.35018", "longitude": "38.31667", "population": 806156}, {"name": "Anqing", "country": "China", "latitude": "30.51365", "longitude": "117.04723", "population": 804493}, {"name": "Freetown", "country": "Sierra Leone", "latitude": "8.48714", "longitude": "-13.2356", "population": 802639}, {"name": "San Pedro Sula", "country": "Honduras", "latitude": "15.50417", "longitude": "-88.025", "population": 801259}, {"name": "Narela", "country": "India", "latitude": "28.85267", "longitude": "77.09288", "population": 800000}, {"name": "Xingtai", "country": "China", "latitude": "37.06306", "longitude": "114.49417", "population": 798770}, {"name": "Niigata", "country": "Japan", "latitude": "37.88637", "longitude": "139.00589", "population": 797591}, {"name": "Muscat", "country": "Oman", "latitude": "23.58413", "longitude": "58.40778", "population": 797000}, {"name": "Zarqa", "country": "Jordan", "latitude": "32.07275", "longitude": "36.08796", "population": 792665}, {"name": "Naucalpan de Juarez", "country": "Mexico", "latitude": "19.47851", "longitude": "-99.23963", "population": 792211}, {"name": "Cankaya", "country": "Turkey", "latitude": "39.9179", "longitude": "32.86268", "population": 792189}, {"name": "Hamamatsu", "country": "Japan", "latitude": "34.7", "longitude": "137.73333", "population": 791707}, {"name": "Valencia", "country": "Spain", "latitude": "39.47391", "longitude": "-0.37966", "population": 789744}, {"name": "Rahim Yar Khan", "country": "Pakistan", "latitude": "28.41987", "longitude": "70.30345", "population": 788915}, {"name": "Pasragad Branch", "country": "Iran", "latitude": "34.77772", "longitude": "48.47168", "population": 787878}, {"name": "Zhaotong", "country": "China", "latitude": "27.31667", "longitude": "103.71667", "population": 787845}, {"name": "Panzhihua", "country": "China", "latitude": "26.58509", "longitude": "101.71276", "population": 787177}, {"name": "Boumerdas", "country": "Algeria", "latitude": "36.76639", "longitude": "3.47717", "population": 786499}, {"name": "Jalandhar", "country": "India", "latitude": "31.32556", "longitude": "75.57917", "population": 785178}, {"name": "Thiruvananthapuram", "country": "India", "latitude": "8.4855", "longitude": "76.94924", "population": 784153}, {"name": "Chuzhou", "country": "China", "latitude": "32.32194", "longitude": "118.29778", "population": 782671}, {"name": "Sakai", "country": "Japan", "latitude": "34.58333", "longitude": "135.46667", "population": 782339}, {"name": "Port Said", "country": "Egypt", "latitude": "31.26531", "longitude": "32.3019", "population": 780515}, {"name": "Cotonou", "country": "Benin", "latitude": "6.36536", "longitude": "2.41833", "population": 780000}, {"name": "Cucuta", "country": "Colombia", "latitude": "7.89391", "longitude": "-72.50782", "population": 777106}, {"name": "Homs", "country": "Syria", "latitude": "34.72682", "longitude": "36.72339", "population": 775404}, {"name": "Xuanzhou", "country": "China", "latitude": "30.9525", "longitude": "118.75528", "population": 774332}, {"name": "Niamey", "country": "Niger", "latitude": "13.51366", "longitude": "2.1098", "population": 774235}, {"name": "Tainan", "country": "Taiwan", "latitude": "22.99083", "longitude": "120.21333", "population": 771235}, {"name": "Shangyu", "country": "China", "latitude": "30.01556", "longitude": "120.87111", "population": 770000}, {"name": "Lodz", "country": "Poland", "latitude": "51.77058", "longitude": "19.47395", "population": 768755}, {"name": "Tyumen", "country": "Russia", "latitude": "57.15222", "longitude": "65.52722", "population": 768358}, {"name": "Erzurum", "country": "Turkey", "latitude": "39.90861", "longitude": "41.27694", "population": 767848}, {"name": "Kahriz", "country": "Iran", "latitude": "34.3838", "longitude": "47.0553", "population": 766706}, {"name": "Anshun", "country": "China", "latitude": "26.25", "longitude": "105.93333", "population": 765313}, {"name": "Rajshahi", "country": "Bangladesh", "latitude": "24.374", "longitude": "88.60114", "population": 763580}, {"name": "Kota", "country": "India", "latitude": "25.18254", "longitude": "75.83907", "population": 763088}, {"name": "Wuzhou", "country": "China", "latitude": "23.48054", "longitude": "111.28848", "population": 761948}, {"name": "Qinhuangdao", "country": "China", "latitude": "39.93167", "longitude": "119.58833", "population": 759718}, {"name": "Maiduguri", "country": "Nigeria", "latitude": "11.84692", "longitude": "13.15712", "population": 758700}, {"name": "Krakow", "country": "Poland", "latitude": "50.06143", "longitude": "19.93658", "population": 755050}, {"name": "Aligarh", "country": "India", "latitude": "27.88145", "longitude": "78.07464", "population": 753207}, {"name": "Shaoyang", "country": "China", "latitude": "27.23818", "longitude": "111.46214", "population": 753194}, {"name": "Pietermaritzburg", "country": "South Africa", "latitude": "-29.61679", "longitude": "30.39278", "population": 750845}, {"name": "Lome", "country": "Togo", "latitude": "6.12874", "longitude": "1.22154", "population": 749700}, {"name": "Winnipeg", "country": "Canada", "latitude": "49.8844", "longitude": "-97.14704", "population": 749607}, {"name": "Bagcilar", "country": "Turkey", "latitude": "41.03903", "longitude": "28.85671", "population": 749024}, {"name": "Bareilly", "country": "India", "latitude": "28.36678", "longitude": "79.43167", "population": 745435}, {"name": "Buraydah", "country": "Saudi Arabia", "latitude": "26.32599", "longitude": "43.97497", "population": 745353}, {"name": "Sao Bernardo do Campo", "country": "Brazil", "latitude": "-23.69389", "longitude": "-46.565", "population": 743372}, {"name": "Hegang", "country": "China", "latitude": "47.34727", "longitude": "130.29033", "population": 743307}, {"name": "Morelia", "country": "Mexico", "latitude": "19.70078", "longitude": "-101.18443", "population": 743275}, {"name": "Nampula", "country": "Mozambique", "latitude": "-15.11646", "longitude": "39.2666", "population": 743125}, {"name": "Riga", "country": "Latvia", "latitude": "56.946", "longitude": "24.10589", "population": 742572}, {"name": "Amsterdam", "country": "Netherlands", "latitude": "52.37403", "longitude": "4.88969", "population": 741636}, {"name": "Ma'anshan", "country": "China", "latitude": "31.68579", "longitude": "118.51008", "population": 741531}, {"name": "Shah Alam", "country": "Malaysia", "latitude": "3.08507", "longitude": "101.53281", "population": 740750}, {"name": "Kumamoto", "country": "Japan", "latitude": "32.80589", "longitude": "130.69181", "population": 738907}, {"name": "Seattle", "country": "United States", "latitude": "47.60621", "longitude": "-122.33207", "population": 737015}, {"name": "Oyo", "country": "Nigeria", "latitude": "7.85367", "longitude": "3.93235", "population": 736072}, {"name": "Torreon", "country": "Mexico", "latitude": "25.54389", "longitude": "-103.41898", "population": 735340}, {"name": "Deyang", "country": "China", "latitude": "31.13019", "longitude": "104.38198", "population": 735070}, {"name": "Quetta", "country": "Pakistan", "latitude": "30.18414", "longitude": "67.00141", "population": 733675}, {"name": "Yangquan", "country": "China", "latitude": "37.8575", "longitude": "113.56333", "population": 731228}, {"name": "Sao Jose dos Campos", "country": "Brazil", "latitude": "-23.17944", "longitude": "-45.88694", "population": 729737}, {"name": "Ashgabat", "country": "Turkmenistan", "latitude": "37.95", "longitude": "58.38333", "population": 727700}, {"name": "Alvaro Obregon", "country": "Mexico", "latitude": "19.35867", "longitude": "-99.20329", "population": 726664}, {"name": "Denpasar", "country": "Indonesia", "latitude": "-8.65", "longitude": "115.21667", "population": 725314}, {"name": "Muzaffarabad", "country": "Pakistan", "latitude": "34.37002", "longitude": "73.47082", "population": 725000}, {"name": "Wanzhou", "country": "China", "latitude": "30.76451", "longitude": "108.39586", "population": 723215}, {"name": "San Luis Potosi", "country": "Mexico", "latitude": "22.14982", "longitude": "-100.97916", "population": 722772}, {"name": "Aguascalientes", "country": "Mexico", "latitude": "21.88234", "longitude": "-102.28259", "population": 722250}, {"name": "Zhumadian", "country": "China", "latitude": "32.97944", "longitude": "114.02944", "population": 721670}, {"name": "Moradabad", "country": "India", "latitude": "28.83893", "longitude": "78.77684", "population": 721139}, {"name": "N'Djamena", "country": "Chad", "latitude": "12.10672", "longitude": "15.0444", "population": 721081}, {"name": "Okayama", "country": "Japan", "latitude": "34.65", "longitude": "133.93333", "population": 720841}, {"name": "Lviv", "country": "Ukraine", "latitude": "49.83826", "longitude": "24.02324", "population": 717273}, {"name": "Ansan-si", "country": "South Korea", "latitude": "37.32361", "longitude": "126.82194", "population": 716785}, {"name": "Denver", "country": "United States", "latitude": "39.73915", "longitude": "-104.9847", "population": 715522}, {"name": "Ribeirao Preto", "country": "Brazil", "latitude": "-21.1775", "longitude": "-47.81028", "population": 711825}, {"name": "Zaporizhzhya", "country": "Ukraine", "latitude": "47.85167", "longitude": "35.11714", "population": 710052}, {"name": "Saltillo", "country": "Mexico", "latitude": "25.42321", "longitude": "-101.0053", "population": 709671}, {"name": "Latakia", "country": "Syria", "latitude": "35.53168", "longitude": "35.79011", "population": 709000}, {"name": "Subang Jaya", "country": "Malaysia", "latitude": "3.04384", "longitude": "101.58062", "population": 708296}, {"name": "Tolyatti", "country": "Russia", "latitude": "53.5303", "longitude": "49.3461", "population": 702879}, {"name": "Jaboatao", "country": "Brazil", "latitude": "-8.18028", "longitude": "-35.00139", "population": 702621}, {"name": "Santo Domingo Oeste", "country": "Dominican Republic", "latitude": "18.5", "longitude": "-70", "population": 701269}, {"name": "Battagram", "country": "Pakistan", "latitude": "34.67719", "longitude": "73.02329", "population": 700000}, {"name": "Santo Domingo Este", "country": "Dominican Republic", "latitude": "18.48847", "longitude": "-69.85707", "population": 700000}, {"name": "Suez", "country": "Egypt", "latitude": "29.97371", "longitude": "32.52627", "population": 699541}, {"name": "Changzhi", "country": "China", "latitude": "35.20889", "longitude": "111.73861", "population": 699514}, {"name": "Agadir", "country": "Morocco", "latitude": "30.42018", "longitude": "-9.59815", "population": 698310}, {"name": "Sarajevo", "country": "Bosnia and Herzegovina", "latitude": "43.84864", "longitude": "18.35644", "population": 696731}, {"name": "Balikpapan", "country": "Indonesia", "latitude": "-1.26753", "longitude": "116.82887", "population": 695287}, {"name": "Bauchi", "country": "Nigeria", "latitude": "10.31032", "longitude": "9.84388", "population": 693700}, {"name": "Tunis", "country": "Tunisia", "latitude": "36.81897", "longitude": "10.16579", "population": 693210}, {"name": "Zhangjiakou", "country": "China", "latitude": "40.78341", "longitude": "114.87139", "population": 692602}, {"name": "Serang", "country": "Indonesia", "latitude": "-6.11528", "longitude": "106.15417", "population": 692101}, {"name": "Shizuoka", "country": "Japan", "latitude": "34.98333", "longitude": "138.38333", "population": 690881}, {"name": "Paranaque City", "country": "Philippines", "latitude": "14.48156", "longitude": "121.01749", "population": 689992}, {"name": "Washington", "country": "United States", "latitude": "38.89511", "longitude": "-77.03637", "population": 689545}, {"name": "Nashville", "country": "United States", "latitude": "36.16589", "longitude": "-86.78444", "population": 689447}, {"name": "Fuxin", "country": "China", "latitude": "42.01556", "longitude": "121.65889", "population": 689050}, {"name": "Enugu", "country": "Nigeria", "latitude": "6.44132", "longitude": "7.49883", "population": 688862}, {"name": "Ta'if", "country": "Saudi Arabia", "latitude": "21.27028", "longitude": "40.41583", "population": 688693}, {"name": "Tangier", "country": "Morocco", "latitude": "35.76727", "longitude": "-5.79975", "population": 688356}, {"name": "Huangshi", "country": "China", "latitude": "30.24706", "longitude": "115.04814", "population": 688090}, {"name": "Liaoyang", "country": "China", "latitude": "41.27194", "longitude": "123.17306", "population": 687890}, {"name": "Sorocaba", "country": "Brazil", "latitude": "-23.50167", "longitude": "-47.45806", "population": 687357}, {"name": "Baise", "country": "China", "latitude": "23.89013", "longitude": "106.62684", "population": 686078}, {"name": "Situbondo", "country": "Indonesia", "latitude": "-7.70623", "longitude": "114.00976", "population": 685967}, {"name": "Sevilla", "country": "Spain", "latitude": "37.38283", "longitude": "-5.97317", "population": 684234}, {"name": "Binzhou", "country": "China", "latitude": "37.36667", "longitude": "118.01667", "population": 682717}, {"name": "El Paso", "country": "United States", "latitude": "31.75872", "longitude": "-106.48693", "population": 681124}, {"name": "Oklahoma City", "country": "United States", "latitude": "35.46756", "longitude": "-97.51643", "population": 681054}, {"name": "Yuncheng", "country": "China", "latitude": "35.02306", "longitude": "110.99278", "population": 680036}, {"name": "Raipur", "country": "India", "latitude": "21.23333", "longitude": "81.63333", "population": 679995}, {"name": "General Santos", "country": "Philippines", "latitude": "6.11278", "longitude": "125.17167", "population": 679588}, {"name": "Dezhou", "country": "China", "latitude": "37.44661", "longitude": "116.36706", "population": 679535}, {"name": "Dushanbe", "country": "Tajikistan", "latitude": "38.53575", "longitude": "68.77905", "population": 679400}, {"name": "Osasco", "country": "Brazil", "latitude": "-23.5325", "longitude": "-46.79167", "population": 677856}, {"name": "Detroit", "country": "United States", "latitude": "42.33143", "longitude": "-83.04575", "population": 677116}, {"name": "Boston", "country": "United States", "latitude": "42.35843", "longitude": "-71.05977", "population": 675647}, {"name": "Zaragoza", "country": "Spain", "latitude": "41.65606", "longitude": "-0.87734", "population": 675301}, {"name": "Gorakhpur", "country": "India", "latitude": "26.76628", "longitude": "83.36889", "population": 674246}, {"name": "Guadalupe", "country": "Mexico", "latitude": "25.67678", "longitude": "-100.25646", "population": 673616}, {"name": "Acapulco de Juarez", "country": "Mexico", "latitude": "16.84942", "longitude": "-99.90891", "population": 673479}, {"name": "Sanmenxia", "country": "China", "latitude": "34.77472", "longitude": "111.18139", "population": 669307}, {"name": "E'zhou", "country": "China", "latitude": "30.39607", "longitude": "114.88655", "population": 668727}, {"name": "Mississauga", "country": "Canada", "latitude": "43.5789", "longitude": "-79.6583", "population": 668549}, {"name": "Madinat an Nasr", "country": "Egypt", "latitude": "30.06667", "longitude": "31.3", "population": 668413}, {"name": "Tabuk", "country": "Saudi Arabia", "latitude": "28.3998", "longitude": "36.57151", "population": 667000}, {"name": "Cheonan", "country": "South Korea", "latitude": "36.8065", "longitude": "127.1522", "population": 666417}, {"name": "Mudanjiang", "country": "China", "latitude": "44.54804", "longitude": "129.62594", "population": 665915}, {"name": "Aracaju", "country": "Brazil", "latitude": "-10.91111", "longitude": "-37.07167", "population": 664908}, {"name": "Athens", "country": "Greece", "latitude": "37.98376", "longitude": "23.72784", "population": 664046}, {"name": "Zagreb", "country": "Croatia", "latitude": "45.81444", "longitude": "15.97798", "population": 663592}, {"name": "Leshan", "country": "China", "latitude": "29.56227", "longitude": "103.76386", "population": 662814}, {"name": "Santo Andre", "country": "Brazil", "latitude": "-23.66389", "longitude": "-46.53833", "population": 662373}, {"name": "Rizhao", "country": "China", "latitude": "35.41414", "longitude": "119.52908", "population": 661943}, {"name": "Nouakchott", "country": "Mauritania", "latitude": "18.08581", "longitude": "-15.9785", "population": 661400}, {"name": "Pointe-Noire", "country": "Republic of the Congo", "latitude": "-4.77609", "longitude": "11.86352", "population": 659084}, {"name": "Helsinki", "country": "Finland", "latitude": "60.16952", "longitude": "24.93545", "population": 658864}, {"name": "Pontianak", "country": "Indonesia", "latitude": "-0.03194", "longitude": "109.325", "population": 658685}, {"name": "Banjarmasin", "country": "Indonesia", "latitude": "-3.31987", "longitude": "114.59075", "population": 657663}, {"name": "Puducherry", "country": "India", "latitude": "11.93381", "longitude": "79.82979", "population": 657209}, {"name": "Suining", "country": "China", "latitude": "30.50802", "longitude": "105.57332", "population": 656760}, {"name": "Puyang", "country": "China", "latitude": "35.76318", "longitude": "115.01721", "population": 655674}, {"name": "Tlalnepantla", "country": "Mexico", "latitude": "19.54005", "longitude": "-99.19538", "population": 653410}, {"name": "Portland", "country": "United States", "latitude": "45.52345", "longitude": "-122.67621", "population": 652503}, {"name": "Jeonju", "country": "South Korea", "latitude": "35.82194", "longitude": "127.14889", "population": 652392}, {"name": "Frankfurt am Main", "country": "Germany", "latitude": "50.11552", "longitude": "8.68417", "population": 650000}, {"name": "Macau", "country": "Macao", "latitude": "22.20056", "longitude": "113.54611", "population": 649335}, {"name": "Palermo", "country": "Italy", "latitude": "38.1166", "longitude": "13.3636", "population": 648260}, {"name": "Izhevsk", "country": "Russia", "latitude": "56.84976", "longitude": "53.20448", "population": 648213}, {"name": "Colombo", "country": "Sri Lanka", "latitude": "6.93548", "longitude": "79.84868", "population": 648034}, {"name": "Maturin", "country": "Venezuela", "latitude": "9.74569", "longitude": "-63.18323", "population": 647459}, {"name": "Lilongwe", "country": "Malawi", "latitude": "-13.96692", "longitude": "33.78725", "population": 646750}, {"name": "Oran", "country": "Algeria", "latitude": "35.69906", "longitude": "-0.63588", "population": 645984}, {"name": "Honcho", "country": "Japan", "latitude": "35.70129", "longitude": "139.98648", "population": 644668}, {"name": "Taguig", "country": "Philippines", "latitude": "14.5243", "longitude": "121.0792", "population": 644473}, {"name": "New South Memphis", "country": "United States", "latitude": "35.08676", "longitude": "-90.05676", "population": 641608}, {"name": "Hwaseong-si", "country": "South Korea", "latitude": "37.20682", "longitude": "126.8169", "population": 640890}, {"name": "Gold Coast", "country": "Australia", "latitude": "-28.00029", "longitude": "153.43088", "population": 640778}, {"name": "Kotli", "country": "Pakistan", "latitude": "33.51836", "longitude": "73.9022", "population": 640000}, {"name": "Al Ahmadi", "country": "Kuwait", "latitude": "29.07694", "longitude": "48.08389", "population": 637411}, {"name": "Cuenca", "country": "Ecuador", "latitude": "-2.90055", "longitude": "-79.00453", "population": 636996}, {"name": "Chisinau", "country": "Moldova", "latitude": "47.00556", "longitude": "28.8575", "population": 635994}, {"name": "Wroclaw", "country": "Poland", "latitude": "51.1", "longitude": "17.03333", "population": 634893}, {"name": "Hebi", "country": "China", "latitude": "35.89917", "longitude": "114.1925", "population": 634721}, {"name": "Tebessa", "country": "Algeria", "latitude": "35.40417", "longitude": "8.12417", "population": 634332}, {"name": "Memphis", "country": "United States", "latitude": "35.14953", "longitude": "-90.04898", "population": 633104}, {"name": "Jingmen", "country": "China", "latitude": "31.03361", "longitude": "112.20472", "population": 632954}, {"name": "Barnaul", "country": "Russia", "latitude": "53.36056", "longitude": "83.76361", "population": 632372}, {"name": "Dandong", "country": "China", "latitude": "40.12917", "longitude": "124.39472", "population": 631973}, {"name": "Stuttgart", "country": "Germany", "latitude": "48.78232", "longitude": "9.17702", "population": 630305}, {"name": "Jaboatao dos Guararapes", "country": "Brazil", "latitude": "-8.11278", "longitude": "-35.01472", "population": 630008}, {"name": "Cancun", "country": "Mexico", "latitude": "21.17429", "longitude": "-86.84656", "population": 628306}, {"name": "Contagem", "country": "Brazil", "latitude": "-19.93167", "longitude": "-44.05361", "population": 627123}, {"name": "Ulyanovsk", "country": "Russia", "latitude": "54.32824", "longitude": "48.38657", "population": 626540}, {"name": "Glasgow", "country": "United Kingdom", "latitude": "55.86515", "longitude": "-4.25763", "population": 626410}, {"name": "Bhilai", "country": "India", "latitude": "21.20919", "longitude": "81.4285", "population": 625138}, {"name": "Panshan", "country": "China", "latitude": "41.18806", "longitude": "122.04944", "population": 625040}, {"name": "Djibouti", "country": "Djibouti", "latitude": "11.58901", "longitude": "43.14503", "population": 623891}, {"name": "Irkutsk", "country": "Russia", "latitude": "52.29778", "longitude": "104.29639", "population": 623869}, {"name": "Las Vegas", "country": "United States", "latitude": "36.17497", "longitude": "-115.13722", "population": 623747}, {"name": "Al Mansurah", "country": "Egypt", "latitude": "31.03637", "longitude": "31.38069", "population": 621953}, {"name": "Kermanshah", "country": "Iran", "latitude": "34.31417", "longitude": "47.065", "population": 621100}, {"name": "Duesseldorf", "country": "Germany", "latitude": "51.22172", "longitude": "6.77616", "population": 620523}, {"name": "Coyoacan", "country": "Mexico", "latitude": "19.3467", "longitude": "-99.16174", "population": 620416}, {"name": "Feira de Santana", "country": "Brazil", "latitude": "-12.26667", "longitude": "-38.96667", "population": 619609}, {"name": "Jiaozhou", "country": "China", "latitude": "36.28389", "longitude": "120.00333", "population": 619266}, {"name": "Suizhou", "country": "China", "latitude": "31.71111", "longitude": "113.36306", "population": 618582}, {"name": "Villa Nueva", "country": "Guatemala", "latitude": "14.52512", "longitude": "-90.58544", "population": 618397}, {"name": "Khabarovsk", "country": "Russia", "latitude": "48.48271", "longitude": "135.08379", "population": 618150}, {"name": "Cuiaba", "country": "Brazil", "latitude": "-15.59611", "longitude": "-56.09667", "population": 618124}, {"name": "Al Hudaydah", "country": "Yemen", "latitude": "14.79781", "longitude": "42.95452", "population": 617871}, {"name": "Pasig City", "country": "Philippines", "latitude": "14.58691", "longitude": "121.0614", "population": 617301}, {"name": "Chizhou", "country": "China", "latitude": "30.66134", "longitude": "117.47783", "population": 615274}, {"name": "Taiz", "country": "Yemen", "latitude": "13.57952", "longitude": "44.02091", "population": 615222}, {"name": "Santa Maria Chimalhuacan", "country": "Mexico", "latitude": "19.42155", "longitude": "-98.95038", "population": 612383}, {"name": "Ya'an", "country": "China", "latitude": "29.98521", "longitude": "102.999", "population": 612056}, {"name": "Borivli", "country": "India", "latitude": "19.23496", "longitude": "72.85976", "population": 609617}, {"name": "Yaroslavl", "country": "Russia", "latitude": "57.62987", "longitude": "39.87368", "population": 608722}, {"name": "Kawaguchi", "country": "Japan", "latitude": "35.80521", "longitude": "139.71072", "population": 607373}, {"name": "Jambi City", "country": "Indonesia", "latitude": "-1.6", "longitude": "103.61667", "population": 606200}, {"name": "Ha'il", "country": "Saudi Arabia", "latitude": "27.52188", "longitude": "41.69073", "population": 605930}, {"name": "Bhavnagar", "country": "India", "latitude": "21.76287", "longitude": "72.15331", "population": 605882}, {"name": "Benoni", "country": "South Africa", "latitude": "-26.18848", "longitude": "28.32078", "population": 605344}, {"name": "Vladivostok", "country": "Russia", "latitude": "43.10562", "longitude": "131.87353", "population": 604901}, {"name": "Cochin", "country": "India", "latitude": "9.93988", "longitude": "76.26022", "population": 604696}, {"name": "Jinzhou", "country": "China", "latitude": "41.10778", "longitude": "121.14167", "population": 604269}, {"name": "Tuxtla", "country": "Mexico", "latitude": "16.75973", "longitude": "-93.11308", "population": 604147}, {"name": "Kryvyy Rih", "country": "Ukraine", "latitude": "47.90572", "longitude": "33.39404", "population": 603904}, {"name": "Amravati", "country": "India", "latitude": "20.93333", "longitude": "77.75", "population": 603837}, {"name": "Sanming", "country": "China", "latitude": "26.24861", "longitude": "117.61861", "population": 602166}, {"name": "Islamabad", "country": "Pakistan", "latitude": "33.72148", "longitude": "73.04329", "population": 601600}, {"name": "Sangli", "country": "India", "latitude": "16.85438", "longitude": "74.56417", "population": 601214}, {"name": "Milwaukee", "country": "United States", "latitude": "43.0389", "longitude": "-87.90647", "population": 600155}, {"name": "Vancouver", "country": "Canada", "latitude": "49.24966", "longitude": "-123.11934", "population": 600000}, {"name": "Shuangyashan", "country": "China", "latitude": "46.67686", "longitude": "131.13273", "population": 600000}, {"name": "Rotterdam", "country": "Netherlands", "latitude": "51.9225", "longitude": "4.47917", "population": 598199}, {"name": "Grosszschocher", "country": "Germany", "latitude": "51.30147", "longitude": "12.32322", "population": 597493}, {"name": "Kleinzschocher", "country": "Germany", "latitude": "51.31568", "longitude": "12.31979", "population": 597493}, {"name": "Luancheng", "country": "China", "latitude": "37.87917", "longitude": "114.65167", "population": 597130}, {"name": "Makhachkala", "country": "Russia", "latitude": "42.97638", "longitude": "47.50236", "population": 596356}, {"name": "Anyang-si", "country": "South Korea", "latitude": "37.3925", "longitude": "126.92694", "population": 595644}, {"name": "Kagoshima", "country": "Japan", "latitude": "31.56667", "longitude": "130.55", "population": 595049}, {"name": "Rasht", "country": "Iran", "latitude": "37.27611", "longitude": "49.58862", "population": 594590}, {"name": "Brampton", "country": "Canada", "latitude": "43.68341", "longitude": "-79.76633", "population": 593638}, {"name": "Mar del Plata", "country": "Argentina", "latitude": "-38.00042", "longitude": "-57.5562", "population": 593337}, {"name": "Abeokuta", "country": "Nigeria", "latitude": "7.15571", "longitude": "3.34509", "population": 593100}, {"name": "Essen", "country": "Germany", "latitude": "51.45657", "longitude": "7.01228", "population": 593085}, {"name": "Al Mahallah al Kubra", "country": "Egypt", "latitude": "30.97063", "longitude": "31.1669", "population": 592573}, {"name": "Yingkou", "country": "China", "latitude": "40.66472", "longitude": "122.23176", "population": 591159}, {"name": "Las Pinas", "country": "Philippines", "latitude": "14.45056", "longitude": "120.98278", "population": 590000}, {"name": "Zhangzhou", "country": "China", "latitude": "24.51333", "longitude": "117.65556", "population": 589831}, {"name": "Reynosa", "country": "Mexico", "latitude": "26.08061", "longitude": "-98.28835", "population": 589466}, {"name": "Thuan An", "country": "Vietnam", "latitude": "10.9239", "longitude": "106.71428", "population": 588616}, {"name": "Dortmund", "country": "Germany", "latitude": "51.51494", "longitude": "7.466", "population": 588462}, {"name": "Londrina", "country": "Brazil", "latitude": "-23.31028", "longitude": "-51.16278", "population": 588125},